,Name_POI,Name_POI.1,Longitude,Latitude,Category,Checkin user number,Category_en
519,武汉天河国际机场停机坪, Wuhan Tianhe International Airport Helipad,114.211047,30.772056,飞机场,474,AIRPORT
151,天河国际机场2号航站楼机场贵宾厅, Tianhe International Airport 2 Terminal No. Airport VIP Lounge,114.215845,30.770534,飞机场,1522,AIRPORT
23,武汉天河机场T2航站楼, Wuhan Tianhe Airport T2 terminal,114.208497,30.769596,飞机场,5566,AIRPORT
1315,武汉天河机场南航明珠俱乐部贵宾休息室, China Southern Airlines Pearl Club VIP Lounge at Wuhan Tianhe Airport,114.211179,30.771523,飞机场,166,AIRPORT
642,武汉天河机场1号航站楼(出发), Wuhan Tianhe Airport 1 Terminal ( Set off ),114.21526,30.77451,飞机场,377,AIRPORT
1518,武汉天河机场东航贵宾休息室, China Eastern VIP Lounge at Wuhan Tianhe Airport,114.238867,30.681669,飞机场,136,AIRPORT
435,武汉天河机场1号航站楼(到达), Wuhan Tianhe Airport 1 Terminal ( arrive ),114.21525,30.77451,飞机场,580,AIRPORT
3,武汉天河机场2号航站楼(出发), Wuhan Tianhe Airport 2 Terminal ( Set off ),114.21029,30.77069,飞机场,17216,AIRPORT
53,武汉天河国际机场A候机区, Wuhan Tianhe International Airport A waiting area,114.213951,30.767366,飞机场,3369,AIRPORT
301,武汉天河机场B区候机楼, Wuhan Tianhe Airport B District Terminal,114.213217,30.773025,飞机场,831,AIRPORT
1528,赛博数码广场(汉口), Cyber Digital Plaza ( Hankou ),114.281196,30.573928,家电电子卖场,134,Appliances and electronic store
695,大智路数码港, Dazhi Road Cyberport,114.295752,30.587358,家电电子卖场,352,Appliances and electronic store
1592,武汉华中通信广场, Wuhan Huazhong Communication Plaza,114.29605,30.58773,家电电子卖场,127,Appliances and electronic store
554,武汉美术馆, Wuhan Art Museum,114.29287,30.583679,美术馆,448,Art gallery
4,楚河汉街 - 武汉中央文化区, Chu River Han Street - Wuhan Central Cultural District,114.342942,30.555776,美术馆,14494,Art gallery
282,湖北美术馆(原湖北省艺术馆), Hubei Art Museum ( Former Hubei Provincial Art Museum ),114.366035,30.564122,美术馆,884,Art gallery
401,武汉杂技厅, Wuhan Acrobatic Hall,114.27618,30.59892,文艺团体,626,Art group
943,钻石假日水疗会, Diamond Holiday Spa,114.26481,30.56892,洗浴推拿场所,254,Bathing and massage place
206,水之梦商务会馆, Water Dream Business Club,114.298,30.61984,洗浴推拿场所,1220,Bathing and massage place
565,武汉大浪淘沙假日休闲酒店, Wuhan Dalang Taosha Holiday Leisure Hotel,114.33059,30.52385,洗浴推拿场所,436,Bathing and massage place
1593,民生大厦, Minsheng Building,114.27328,30.59422,楼宇,127,Building
1303,田园商务大厦, Pastoral Business Building,114.27537,30.62019,楼宇,167,Building
1524,宝利金国际广场B座, Poly Gold International Plaza B seat,114.29257,30.5761,楼宇,135,Building
1205,美奇国际, Meiqi International,114.27715,30.57292,楼宇,186,Building
1545,建银大厦, CCB Building,114.27108,30.59685,楼宇,132,Building
1437,湖北信息产业科技大厦(珞喻路), Hubei Information Industry Technology Building ( Luo Yulu ),114.3922,30.51164,楼宇,147,Building
637,武汉世界贸易大厦, Wuhan World Trade Building,114.26858,30.58027,楼宇,381,Building
641,湖北省奥林匹克体育中心办公楼, Hubei Olympic Sports Center Office Building,114.469353,30.475173,楼宇,378,Building
1215,光谷国际, Optics Valley International,114.430036,30.504692,楼宇,184,Building
1181,水果湖广场, Fruit Lake Plaza,114.34452,30.54789,楼宇,191,Building
1283,武汉天河机场综合楼, Wuhan Tianhe Airport Complex,114.220215,30.777736,楼宇,170,Building
510,友谊大厦(友谊路), Friendship Building ( Friendship Road ),114.28005,30.57607,楼宇,480,Building
1542,中百写字楼, Zhongbai Office Building,114.28957,30.58195,楼宇,132,Building
360,泰合广场, Thai Hop Square,114.26917,30.57476,楼宇,685,Building
373,楚天传媒大厦, Chutian Media Building,114.36608,30.56727,楼宇,674,Building
1340,东风汽车公司, Dongfeng Motor Corporation,114.164179,30.5019,楼宇,161,Building
434,积玉桥万达广场, Jiyu Bridge Wanda Plaza,114.310167,30.56509,楼宇,580,Building
110,武汉国际会展中心, Wuhan International Convention and Exhibition Center,114.275453,30.582323,楼宇,1971,Building
1324,武汉科技大厦, Wuhan Science and Technology Building,114.25035,30.61199,楼宇,164,Building
1590,烽火科技大厦, FiberHome Technology Building,114.39153,30.51299,楼宇,128,Building
328,中建广场, China Construction Plaza,114.33213,30.53465,楼宇,762,Building
1302,同成广场, Tongcheng Plaza,114.26565,30.59376,楼宇,167,Building
1383,宝丰时代, Baofeng Times,114.25375,30.57833,楼宇,155,Building
472,宝利金国际广场A座, Poly Gold International Plaza A seat,114.29216,30.57633,楼宇,531,Building
147,新世界国贸大厦, New World International Trade Building,114.269613,30.594837,楼宇,1544,Building
1296,浦发银行大厦, Shanghai Pudong Development Bank Building,114.27457,30.59066,楼宇,168,Building
305,摩尔城商业, Moore City Business,114.209726,30.561644,楼宇,812,Building
1270,海天大厦, Haitian Building,114.31228,30.41907,楼宇,173,Building
1308,武汉民族商厦, Wuhan Ethnic Commercial Building,114.28774,30.57638,楼宇,167,Building
254,湖北省电视大楼, Hubei Provincial TV Building,114.32519,30.55418,楼宇,963,Building
1618,九运大厦, Jiuyun Building,114.27916,30.58961,楼宇,125,Building
686,民生银行大厦, Minsheng Bank Building,114.273403,30.594147,楼宇,355,Building
743,绿地国际金融城, Greenland International Financial City,114.32645,30.582853,楼宇,331,Building
744,招银大厦, China Merchants Bank Building,114.26367,30.59368,楼宇,331,Building
746,中铁四院, China Railway Fourth Hospital,114.344693,30.601822,楼宇,328,Building
748,光谷银座, Optics Valley Ginza,114.39201,30.51143,楼宇,328,Building
753,平安大厦, Ping An Building,114.2912,30.57877,楼宇,324,Building
1468,中商广场写字楼, China Business Plaza Office Building,114.33171,30.53594,楼宇,142,Building
1139,2008新长江广场, 2008 New Yangtze Plaza,114.31813,30.55288,楼宇,202,Building
1641,湖北科教大厦, Hubei Science and Education Building,114.33901,30.54442,楼宇,123,Building
1472,丝宝国际大厦, Sibao International Building,114.29274,30.62246,楼宇,141,Building
826,福星国际商会大厦, Fuxing International Chamber of Commerce Building,114.27559,30.58848,楼宇,291,Building
1477,中南大厦, Zhongnan Building,114.33583,30.54195,楼宇,141,Building
845,长江日报社, Changjiang Daily,114.278771,30.603414,楼宇,284,Building
976,中南国际城A座, Zhongnan International City A seat,114.33007,30.53393,楼宇,245,Building
965,国光大厦, Guoguang Building,114.39973,30.51252,楼宇,248,Building
899,光谷时代广场, Optics Valley Times Square,114.413295,30.501675,楼宇,268,Building
950,汉商大厦, Hanshang Building,114.26657,30.54912,楼宇,252,Building
821,汉口北国际商品交易中心, Hankou North International Commodity Trading Center,114.313946,30.699483,楼宇,294,Building
1107,中国移动通信武汉移动综合大楼, China Mobile Communications Wuhan Mobile Complex,114.25649,30.61409,楼宇,209,Building
766,光谷商业中心, Optics Valley Commercial Center,114.39738,30.50748,楼宇,319,Building
1371,中石油大厦, PetroChina Building,114.23929,30.62445,楼宇,157,Building
1630,阜华大厦, Fuhua Building,114.35365,30.52604,楼宇,124,Building
691,湖北经视大厦, Hubei Jingshi Building,114.33769,30.54772,楼宇,353,Building
696,新世界中心A座, New World Center A seat,114.26662,30.57893,楼宇,351,Building
41,光谷软件园, Optics Valley Software Park,114.403097,30.474922,楼宇,3954,Building
124,市民之家, Citizen's House,114.295082,30.660121,楼宇机构,1850,Building agency
1672,武汉市公安局出入境管理处(江南光谷受理中心), Exit-Entry Administration Department of Wuhan Public Security Bureau ( Jiangnan Optics Valley Acceptance Center ),114.386256,30.514583,楼宇机构,121,Building agency
96,南国首义汇, Nanguo Shouyihui,114.30371,30.534801,楼宇机构,2118,Building agency
1071,武汉市公安局出入境管理处, Exit-Entry Administration Department of Wuhan Public Security Bureau,114.309942,30.604253,楼宇机构,218,Building agency
1434,世茂龙湾（一期）商业, Shimao Longwan (Phase I) Commercial,114.093093,30.469482,楼宇机构,148,Building agency
302,北冰洋城市广场, Arctic Ocean City Plaza,114.142799,30.621849,楼宇机构,826,Building agency
1517,楚河汉街, Chu River Han Street,114.28146,30.57814,楼宇机构,136,Building agency
340,大武汉1911, Great Wuhan 1911,114.262726,30.615949,楼宇机构,730,Building agency
59,华侨城欢乐谷, OCT Happy Valley,114.386473,30.58842,楼宇机构,2988,Building agency
228,奥山世纪广场, Ousan Century Plaza,114.360809,30.615746,楼宇机构,1049,Building agency
1417,湖北大学小礼堂, Hubei University Small Auditorium,114.333679,30.575893,楼宇机构,150,Building agency
1511,交通银行武汉分行, Bank of Communications Wuhan Branch,114.281296,30.601755,楼宇机构,136,Building agency
844,福星惠誉·水岸星城A区(西门), Fortune Star Fitch · Waterfront Star City A Area ( Simon ),114.346407,30.577784,楼宇大门,284,Building gate
1638,咖啡小镇, coffee town,114.287782,30.59679,咖啡厅,123,Cafe
1210,星巴克(大润发店), Starbucks ( RT-Mart Store ),114.266306,30.610078,咖啡厅,186,Cafe
331,星巴克(南湖城市广场店), Starbucks ( Nanhu City Plaza Store ),114.325168,30.50488,咖啡厅,754,Cafe
1441,遇见coffee吧, meet coffee Bar,114.308486,30.552459,咖啡厅,147,Cafe
204,星巴克(菱角湖万达广场), Starbucks ( Water chestnut lake Wanda Plaza ),114.269739,30.609769,咖啡厅,1227,Cafe
392,Costa coffee(新世界K11店), Costa coffee( new world K11 shop ),114.265596,30.579392,咖啡厅,637,Cafe
55,星巴克咖啡(光谷店), Starbucks coffee ( Optics Valley Store ),114.400897,30.505691,咖啡厅,3220,Cafe
258,星巴克(新世界店), Starbucks ( Shinsegae store ),114.266454,30.579048,咖啡厅,951,Cafe
577,jamaicablue(武汉天地店), jamaicablue( Wuhan Tiandi Store ),114.310333,30.607809,咖啡厅,425,Cafe
1401,查理布朗咖啡店, Charlie Brown Coffee Shop,114.291628,30.576423,咖啡厅,153,Cafe
1635,禅石咖啡, Zen Stone Coffee,114.402131,30.505508,咖啡厅,124,Cafe
140,星巴克(群光店), Starbucks ( Qunguangdian ),114.35576,30.52561,咖啡厅,1624,Cafe
1029,左佐zozo咖啡鸡尾酒, Zuo Zuo zozo coffee cocktail,114.300724,30.589323,咖啡厅,231,Cafe
618,帝豪咖啡, Emgrand Coffee,114.13807,30.62081,咖啡厅,391,Cafe
288,"ZOO,coffee(1911大武汉店)"," ZOO, coffee (1911 Da Wuhan Store )",114.262254,30.615879,咖啡厅,864,Cafe
127,星巴克(徐东销品茂店), Starbucks ( Xudong Pinmao Store ),114.34377,30.589054,咖啡厅,1814,Cafe
631,星巴克(武汉司门口店), Starbucks ( Wuhan Simen Store ),114.305157,30.547339,咖啡厅,385,Cafe
1196,cafe green青咖, cafe green green coffee,114.297295,30.602901,咖啡厅,188,Cafe
347,星巴克(武汉大学店), Starbucks ( Wuhan University Store ),114.356806,30.533201,咖啡厅,716,Cafe
247,星巴克 Starbucks(花园道店), Starbucks Starbucks( Garden Road Store ),114.265796,30.595675,咖啡厅,988,Cafe
334,融园咖啡, Rongyuan Coffee,114.30921,30.55212,咖啡厅,751,Cafe
1420,星巴克(武汉菩提金国际广场店), Starbucks ( Wuhan Bodhi Gold International Plaza Store ),114.338915,30.548725,咖啡厅,150,Cafe
363,伊莉维尔, Eliville,114.31085,30.60777,糕饼店,682,Cake shop
219,DreamCity City昙华林主题奶茶铺 Dream, DreamCity City Tanhualin Theme Milk Tea Shop Dream,114.30923,30.55225,糕饼店,1133,Cake shop
1333,杯子和糖, cup and sugar,114.269,30.5485,糕饼店,162,Cake shop
1368,DQ 新佳丽店 DQ, DQ New Belle Store DQ,114.29039,30.57844,糕饼店,158,Cake shop
1344,DQ 新世界K11新食艺店 DQ, DQ new world K11 new food shop DQ,114.26627,30.57818,糕饼店,161,Cake shop
580,85度C面包坊(吉庆街店), 85 Spend C bakery ( Jiqing Street Store ),114.293426,30.585167,糕饼店,423,Cake shop
1568,DQ 航天双城店, DQ Aerospace Shuangcheng Store,114.3174,30.62445,糕饼店,130,Cake shop
1239,DQ 民众乐园店, DQ People's Paradise Store,114.28709,30.5758,糕饼店,179,Cake shop
6,世界城光谷步行街, World City Optics Valley Pedestrian Street,114.40231,30.50629,特色商业街,12530,Characteristic commercial street
237,汉正街第一大道(汉正街), Hanzheng Street First Avenue ( Hanzheng Street ),114.27655,30.56658,特色商业街,1026,Characteristic commercial street
923,汉正街, Hanzheng Street,114.28166,30.56689,特色商业街,260,Characteristic commercial street
168,江汉路步行商业街, Jianghan Road Pedestrian Commercial Street,114.29726,30.57686,特色商业街,1426,Characteristic commercial street
11,武汉天地, Wuhan Tiandi,114.310077,30.607453,特色商业街,8345,Characteristic commercial street
467,江汉路步行商业街(泰宁里小区东南), Jianghan Road Pedestrian Commercial Street ( Southeast of Tainingli Community ),114.28756,30.58352,特色商业街,538,Characteristic commercial street
335,青山天河国际影城, Qingshan Tianhe International Cinema,114.398314,30.640516,电影院,747,Cinema
212,江汉环球电影城, Jianghan Universal Cinema,114.299947,30.547453,电影院,1160,Cinema
213,横店影视电影城, Hengdian Film and Television City,114.291451,30.579241,电影院,1159,Cinema
149,巨幕影城(武汉光谷广场资本大厦店), Giant Screen Studios ( Wuhan Optics Valley Plaza Capital Building Store ),114.3997,30.50451,电影院,1534,Cinema
194,武汉金逸国际影城王家湾店, Wuhan Jinyi International Cinema Wangjiawan Branch,114.206451,30.558856,电影院,1283,Cinema
222,湖北银兴乐天影城（西园旗舰店）, Hubei Yinxing Lotte Cinema (Xiyuan Flagship Store),114.268465,30.585431,电影院,1111,Cinema
135,万达国际影城经开店, Wanda International Cinema opens a store,114.173749,30.507701,电影院,1669,Cinema
243,CGV星星国际影城, CGV Star International Studios,114.3102,30.60751,电影院,1004,Cinema
161,武汉万达影城汉商店, Wuhan Wanda Cinema Han Store,114.26689,30.54916,电影院,1466,Cinema
98,金逸国际电影城, Jinyi International Film City,114.34186,30.58778,电影院,2105,Cinema
1367,环艺天河影城, Universal Art Tianhe Cinema,114.210486,30.560117,电影院,158,Cinema
885,中影国际影城（武汉东购店）, China Film International Cinema (Wuhan Donggou Store),114.318471,30.624868,电影院,273,Cinema
21,武汉万达菱角湖店, Wuhan Wanda Lingjiao Lake Store,114.26901,30.60977,电影院,5954,Cinema
735,亚贸兴汇影城, Asia Trade Xinghui Cinema,114.34292,30.529441,电影院,334,Cinema
43,武商摩尔国际电影城, Wushang Moore International Film City,114.271182,30.581051,电影院,3876,Cinema
44,武汉万达影城, Wuhan Wanda Cinema,114.29175,30.57796,电影院,3864,Cinema
1126,世贸广场环艺银兴电影城, World Trade Plaza Huanyi Yinxing Cinema,114.268982,30.58013,电影院,206,Cinema
61,中影天河国际影城,China Film Tianhe International Cinema,114.399855,30.505086,电影院,2877,Cinema
132,武汉万达影城春树里店, Wuhan Wanda Cinema Chunshuli Branch,114.36032,30.57545,电影院,1696,Cinema
75,武汉环艺新民众电影城, Wuhan Huanyi New People's Film City,114.287203,30.576031,电影院,2524,Cinema
197,洪山天河国际影城, Hongshan Tianhe International Cinema,114.35448,30.525859,电影院,1276,Cinema
592,华谊兄弟武汉影院黄陂店, Huayi Brothers Wuhan Cinema Huangpi Store,114.375957,30.880612,电影院,410,Cinema
196,華誼兄弟武汉影院, Huayi Brothers Wuhan Cinema,114.41175,30.47826,电影院,1278,Cinema
1276,武昌八一路, Wuchang Bayi Road,114.341298,30.54059,服装鞋帽皮具店,171,"Clothing, shoe, hat leather shop"
398,武汉大学正门, Main entrance of Wuhan University,114.365503,30.529797,高等院校,629,College
1347,湖北艺术职业学院(北门), Hubei Art Vocational College ( North Gate ),114.34688,30.52814,高等院校,160,College
376,湖北中医学院(昙华林), Hubei University of Traditional Chinese Medicine ( Tan Hualin ),114.31414,30.55011,高等院校,671,College
240,华中师范大学(南门), Huazhong Normal University ( South Gate ),114.35736,30.51424,高等院校,1015,College
1109,华中师范大学七号楼," Building 7, Central China Normal University",114.367592,30.514828,高等院校,209,College
721,武汉市财政大学(西院), Wuhan University of Finance ( West Court ),114.19689,30.56599,高等院校,341,College
1453,中南民族大学10号教学楼, South Central University for Nationalities 10 Teaching Building No.,114.39228,30.49052,高等院校,145,College
1460,湖北艺术职业学院(虎泉街), Hubei Art Vocational College ( Tiger Spring Street ),114.371485,30.510767,高等院校,143,College
338,武汉科技学院阳光校区, Wuhan University of Science and Technology Sunshine Campus,114.34397,30.37343,高等院校,735,College
755,华中师范大学(西门), Huazhong Normal University ( Simon ),114.35848,30.52129,高等院校,323,College
756,武汉音乐学院(湖北省武昌实验小学西南)," Wuhan Conservatory of Music ( Southwest of Wuchang Experimental Primary School, Hubei Province )",114.29492,30.53825,高等院校,323,College
787,武汉商业服务学院南二门, South Second Gate of Wuhan Business Service College,114.08647,30.45831,高等院校,309,College
1361,武汉大学东湖分校教二楼," Second Floor, Wuhan University East Lake Campus",114.31885,30.42181,高等院校,158,College
218,中南财经政法大学首义校区, Zhongnan University of Economics and Law Shouyi Campus,114.31317,30.5401,高等院校,1133,College
827,湖北美术学院藏龙岛校区, Hubei Academy of Fine Arts Canglong Island Campus,114.416672,30.418026,高等院校,291,College
1008,武汉大学外国语言文学学院," School of Foreign Languages and Literature, Wuhan University",114.37112,30.53904,高等院校,236,College
849,武汉科技大学黄家湖校区教一楼," 1st Floor, Huangjiahu Campus, Wuhan University of Science and Technology",114.2646,30.44057,高等院校,283,College
210,武汉大学(凌波门), Wuhan University ( Limbo Gate ),114.37062,30.54329,高等院校,1176,College
860,武汉大学(西门), Wuhan University ( Simon ),114.35462,30.53919,高等院校,281,College
354,武汉大学经济与管理学院," School of Economics and Management, Wuhan University",114.373037,30.539092,高等院校,692,College
908,武汉理工大学鉴湖四教堂楼," Jianhu Fourth Church Building, Wuhan University of Technology",114.34629,30.51488,高等院校,265,College
1142,武汉软件工程职业学院(北门), Wuhan Software Engineering Vocational College ( North Gate ),114.42921,30.45013,高等院校,201,College
1163,中国地质大学江城学院西门," West Gate of Jiangcheng College, China University of Geosciences",114.335335,30.348884,高等院校,194,College
1298,武汉大学信息学部(北二门)," Department of Informatics, Wuhan University ( North Second Gate )",114.36013,30.53168,高等院校,168,College
417,武汉理工大学西院大礼堂, The Auditorium of the West Campus of Wuhan University of Technology,114.346759,30.522614,高等院校,600,College
312,长江大学武汉校区, Yangtze University Wuhan Campus,114.029245,30.530993,高等院校,794,College
318,武汉大学医学部, Wuhan University School of Medicine,114.3561,30.55326,高等院校,783,College
1387,江汉大学汉口校区(球场路), Jianghan University Hankou Campus ( Stadium Road ),114.29077,30.60151,高等院校,154,College
479,湖北经济学院逸夫教学楼," Yifu Teaching Building, Hubei University of Economics",114.43498,30.41524,高等院校,518,College
506,华中师范大学汉口分校教学楼, Central China Normal University Hankou Branch Teaching Building,114.31624,30.41433,高等院校,483,College
522,湖北财税职业学院西区, Hubei Finance and Taxation Vocational College West District,114.29671,30.51535,高等院校,471,College
1398,武汉商业服务学院(薛峰社区西门西南)," Wuhan Business Service College ( Southwest of Ximen, Xuefeng Community )",114.08792,30.4564,高等院校,153,College
1255,同济学子苑, Tongji Student Garden,114.259137,30.581718,高等院校,175,College
545,中南民族大学工商学院黄家湖校区, South-Central University for Nationalities Business School Huangjiahu Campus,114.271321,30.458993,高等院校,451,College
296,武汉理工大学（鉴湖）, Wuhan University of Technology (Jianhu),114.345459,30.512356,高等院校,844,College
552,中南财经政法大学(南门), Zhongnan University of Economics and Law ( South Gate ),114.31231,30.53348,高等院校,448,College
559,武汉大学法学院, Wuhan University Law School,114.37113,30.53927,高等院校,445,College
562,Building of Foreign Languages&&Arts, Building of Foreign Languages&&Arts,114.27237,30.45821,高等院校,441,College
471,华中师范大学音乐学院, Central China Normal University School of Music,114.3614,30.5156,高等院校,531,College
586,武汉长江工商学院综合楼, Wuhan Changjiang University of Commerce and Industry Comprehensive Building,114.27274,30.45927,高等院校,417,College
1418,武汉科技大学外语外事职业学院, Wuhan University of Science and Technology Vocational College of Foreign Languages and Foreign Affairs,114.42843,30.58805,高等院校,150,College
445,武汉理工大学东院(南门), East Campus of Wuhan University of Technology ( South Gate ),114.35446,30.5138,高等院校,563,College
1172,武汉工程职业技术学院江北校区, Jiangbei Campus of Wuhan Engineering Vocational and Technical College,114.544582,30.706861,高等院校,192,College
1427,华中科技大学南大门, South Gate of Huazhong University of Science and Technology,114.413554,30.507247,高等院校,149,College
1171,武汉职业技术学院西区, West District of Wuhan Vocational and Technical College,114.41021,30.48606,高等院校,192,College
628,武汉科技学院(东湖校区), Wuhan Institute of Technology ( East Lake Campus ),114.37282,30.57892,高等院校,385,College
313,国立武汉大学(南门), National Wuhan University ( South Gate ),114.35795,30.53301,高等院校,794,College
630,华中师范大学体育学院,"School of Physical Education, Central China Normal University",114.35784,30.50988,高等院校,385,College
924,武汉工程大学科教大楼, Science and Education Building of Wuhan University of Technology,114.39029,30.49948,高等院校,259,College
65,武汉大学信息学部," Department of Informatics, Wuhan University",114.359585,30.528172,高等院校,2817,College
1643,湖北美术学院艺术设计学院," School of Art and Design, Hubei Academy of Fine Arts",114.409734,30.400856,高等院校,123,College
37,湖北大学(武昌本部校区), Hubei University ( Wuchang headquarters campus ),114.32936,30.57727,高等院校,4308,College
150,武汉科技大学青山校区, Wuhan University of Science and Technology Qingshan Campus,114.36961,30.62335,高等院校,1526,College
26,中南财经政法大学南湖校区, Zhongnan University of Economics and Law Nanhu Campus,114.38855,30.4789,高等院校,5269,College
1629,中国地质大学汉口校区, China University of Geosciences Hankou Campus,114.2592,30.58608,高等院校,124,College
1653,华中科技大学(航空路), Huazhong University of Science and Technology ( air road ),114.26228,30.58255,高等院校,122,College
120,华中师范大学(东门),Huazhong Normal University ( East Gate ),114.36772,30.51499,高等院校,1872,College
175,湖北警官学院(解放大道), Hubei Police Academy ( Liberation Avenue ),114.20638,30.59159,高等院校,1395,College
13,国立武汉大学, National Wuhan University,114.35844,30.53409,高等院校,7500,College
178,华中师范大学(北门), Huazhong Normal University ( North Gate ),114.36093,30.52418,高等院校,1364,College
1664,武汉大学第10教学楼, Wuhan University No. 1 10 teaching building,114.36083,30.54417,高等院校,121,College
1595,湖北水利水电职业技术学院(武汉禹通驾驶培训学校西南), Hubei Vocational and Technical College of Water Resources and Hydropower ( Southwest of Wuhan Yutong Driving Training School ),114.33905,30.49142,高等院校,127,College
84,武汉大学东湖分校, Wuhan University East Lake Branch,114.316418,30.422749,高等院校,2346,College
143,华中科技大学东校区, East Campus of Huazhong University of Science and Technology,114.43287,30.50605,高等院校,1598,College
1589,江汉大学艺术学院, Jianghan University School of Art,114.1669,30.51877,高等院校,128,College
193,武汉大学工学部, Wuhan University Faculty of Engineering,114.367741,30.544638,高等院校,1286,College
93,武汉理工大学鉴湖校区, Wuhan University of Technology Jianhu Campus,114.34324,30.51309,高等院校,2187,College
85,武汉理工大学马房山校区东院," East Campus, Mafangshan Campus, Wuhan University of Technology",114.35106,30.52153,高等院校,2336,College
1585,华中师范大学汉口分校北大门, North Gate of Central China Normal University Hankou Branch,114.3169,30.41885,高等院校,128,College
170,武汉体育中心体育馆(东广场), Wuhan Sports Center Gymnasium ( East Plaza ),114.17504,30.50074,综合体育馆,1423,Comprehensive Stadium
1655,汉口文化体育中心, Hankou Culture and Sports Center,114.26959,30.60149,综合体育馆,122,Comprehensive Stadium
271,塔子湖体育中心, Tazi Lake Sports Center,114.28396,30.64028,综合体育馆,918,Comprehensive Stadium
320,华中师范大学佑铭体育馆," Youming Gymnasium, Central China Normal University",114.358476,30.515527,综合体育馆,781,Comprehensive Stadium
832,小蓝鲸健康美食城(硚口路店), Little Blue Whale Healthy Food City ( Qiaokou Road Store ),114.25158,30.57476,综合酒楼,290,Comprehensive restaurant
402,武汉纽宾凯新宜休闲酒店(原武汉纽宾凯新宜大酒店), Wuhan New Beacon Xinyi Leisure Hotel ( Former Wuhan New Beacon Xinyi Hotel ),114.31781,30.53965,综合酒楼,626,Comprehensive restaurant
339,武汉中南花园饭店, Wuhan Zhongnan Garden Hotel,114.33525,30.53201,综合酒楼,733,Comprehensive restaurant
1321,艳阳天大酒店汉阳分店, Yanyangtian Hotel Hanyang Branch,114.24851,30.55185,综合酒楼,165,Comprehensive restaurant
572,艳阳天酒家宝丰路店, Yanyangtian Restaurant Baofeng Road Branch,114.25027,30.57572,综合酒楼,430,Comprehensive restaurant
905,鑫龙潭青山大酒店, Xinlongtan Qingshan Hotel,114.39669,30.61893,综合酒楼,267,Comprehensive restaurant
999,沃尔玛购物广场(徐东销品茂店), Walmart Supercenter ( Xudong Pinmao Store ),114.343002,30.58835,便民商店/便利店,239,Convenience Store/Convenience Store
422,沃尔玛购物广场(宗关西汇店), Walmart Supercenter ( Zongguan Xihui Store ),114.22216,30.584009,便民商店/便利店,598,Convenience Store/Convenience Store
1478,家乐福(钟家村店), Carrefour (Zhongjia Village Store ),114.265778,30.549829,便民商店/便利店,141,Convenience Store/Convenience Store
655,大润发超级市场, RT-Mart Supermarket,114.285004,30.5849,便民商店/便利店,370,Convenience Store/Convenience Store
1206,家乐福(二七店), Carrefour ( Erqidian ),114.316208,30.62421,便民商店/便利店,186,Convenience Store/Convenience Store
1030,中百仓储(珞狮路购物广场店), Zhongbai Warehousing ( Luoshi Road Shopping Plaza Store ),114.349847,30.514114,便民商店/便利店,231,Convenience Store/Convenience Store
1209,武汉国际博览中心WH, Wuhan International Expo Center WH,114.243475,30.510723,文化体育类公司,186,Cultural and sports company
543,哈根达斯(汉街店), Haagen-Dazs ( Han Street Store ),114.341148,30.554378,甜品店,453,Dessert shop
650,sweetdream甜蜜的梦, sweetdream Sweet dream,114.286331,30.575878,甜品店,373,Dessert shop
555,哈根达斯 武汉天地店, Haagen-Dazs Wuhan Tiandi Store,114.31272,30.60807,甜品店,448,Dessert shop
416,哈根达斯(大洋店), Haagen-Dazs ( Dayangdian ),114.290047,30.577169,甜品店,601,Dessert shop
768,哈根达斯(武广店), Haagen-Dazs ( wuguangdian ),114.270042,30.58032,甜品店,318,Dessert shop
921,猫屎咖啡武汉南国店, Cat Shit Coffee Wuhan Nanguo Store,114.303729,30.534715,餐饮美食,261,Dining food
1369,豪享来武汉中山店, Haoxianglai Wuhan Zhongshan Store,114.2904,30.58,餐饮美食,158,Dining food
1436,周黑鸭 武昌火车站店, Zhou Hei Ya Wuchang Railway Station,114.31737,30.52855,餐饮美食,148,Dining food
645,绿茵阁西餐厅 销品茂店, Lvyinge Western Restaurant Pinmao Branch,114.34376,30.58903,餐饮美食,375,Dining food
616,3coffee, 3coffee,114.299865,30.586133,餐饮美食,392,Dining food
1067,汤逊湖鱼丸一条街, Tangxun Lake Fish Ball Street,114.37797,30.4241,餐饮美食,219,Dining food
366,九龙大酒店, Kowloon Hotel,114.34406,30.51051,餐饮美食,676,Dining food
1147,井圣时尚料理, Well Saint Fashion Cuisine,114.291915,30.577047,餐饮美食,200,Dining food
656,星巴克咖啡(光谷天地店), Starbucks coffee ( Optics Valley Store ),114.409599,30.478921,餐饮美食,370,Dining food
1349,重庆老火锅, Chongqing old hot pot,114.291099,30.584564,餐饮美食,160,Dining food
1357,香籁概念餐厅 菱角湖万达店, Fragrant Lai Concept Restaurant Lingjiao Lake Wanda Store,114.2685,30.61073,餐饮美食,159,Dining food
813,Helens西餐吧(西园店), Helens western food bar ( West Garden Store ),114.269424,30.584927,餐饮美食,298,Dining food
352,汉街, Han Street,114.331018,30.561613,餐饮美食,698,Dining food
661,新农牛肉 蔡甸总店, Xinnong Beef Caidian Main Store,114.08919,30.5583,餐饮美食,366,Dining food
116,稻香, Daoxiang,114.34613,30.553876,餐饮美食,1897,Dining food
396,老街烧烤故事, Old Street BBQ Story,114.267692,30.592376,餐饮美食,632,Dining food
1026,Helens西餐吧(司门口店), Helens western food bar ( Simen Store ),114.296753,30.546836,餐饮美食,232,Dining food
710,星巴克（江汉路宝丽金）, Starbucks (Jianghan Road Poly Gold),114.287406,30.580959,餐饮美食,345,Dining food
730,复活岛烧烤菱角湖万达店, Easter Island BBQ Water Chestnut Lake Wanda Store,114.267936,30.610687,餐饮美食,338,Dining food
739,麦当劳 汉商21世纪店, McDonald's Chinese Merchants twenty one Century Store,114.21366,30.56097,餐饮美食,333,Dining food
103,四海一家武汉点," Four Seas, One Wuhan Point",114.271561,30.579365,餐饮美食,2026,Dining food
598,绿茵阁西餐厅 建二路店, Lvyinge Western Restaurant Jianer Road Branch,114.37593,30.62492,餐饮美食,404,Dining food
1673,绿菌阁西餐厅, Green Mushroom Western Restaurant,114.27034,30.58123,餐饮美食,121,Dining food
1100,双龙油焖大虾, Shuanglong Braised Prawns,114.24605,30.60574,餐饮美食,212,Dining food
1613,亚洲土地AsiaTable, Asian land AsiaTable,114.338356,30.557113,餐饮美食,126,Dining food
1480,老时光咖啡馆, old time cafe,114.299369,30.587667,餐饮美食,141,Dining food
1245,居仁门车站小吃, Juinmen Station Snacks,114.26006,30.56935,餐饮美食,177,Dining food
1312,星巴克洪福添美广场店, Starbucks Hong Fu Tim Mei Plaza,114.397514,30.496553,餐饮美食,166,Dining food
1264,谢先生餐厅外滩店, Mr. Xie Restaurant The Bund,114.303886,30.600452,餐饮美食,174,Dining food
997,鲜芋仙, Fresh Taro Fairy,114.283715,30.578365,餐饮美食,240,Dining food
1616,老街烧烤, Old Street BBQ,114.289151,30.583725,餐饮美食,126,Dining food
1117,荷清水香农家菜馆 珞狮南路店, He Qingshui Xiang Nongjia Restaurant Luoshi South Road Branch,114.33899,30.48369,餐饮美食,208,Dining food
1076,刘记三狗牛肉面馆, Liu Ji Sangou Beef Noodle House,114.29734,30.58739,餐饮美食,216,Dining food
1334,华中科技大学喻园餐厅, Huazhong University of Science and Technology Yuyuan Restaurant,114.414792,30.516102,餐饮美食,162,Dining food
742,湖北南湖驾驶教学培训中心(富安路), Hubei Nanhu Driving Teaching and Training Center ( Fu'an Road ),114.31338,30.50071,驾校,332,Driving school
1392,锦江之星武汉六渡桥店, Jinjiang Inn Wuhan Liuduqiao,114.2815,30.57243,经济型连锁酒店,154,Economic chain hotel
882,假日酒店(武汉天安店), Holiday Inn ( Wuhan Tianan Store ),114.28223,30.58419,经济型连锁酒店,275,Economic chain hotel
1360,锦江之星丁字桥店, Jinjiang Inn T-shaped Bridge,114.33334,30.53028,经济型连锁酒店,158,Economic chain hotel
1178,锦江之星江汉路步行街店, Jinjiang Inn Jianghan Road Pedestrian Street,114.29637,30.57799,经济型连锁酒店,192,Economic chain hotel
1560,格林豪泰酒店(武昌火车站店), GreenTree Inn ( Wuchang Railway Station Store ),114.32314,30.53138,经济型连锁酒店,131,Economic chain hotel
1216,艳阳天时尚旅店(宝丰路店), Sunny Day Fashion Hotel ( Baofeng Road Store ),114.252617,30.576401,经济型连锁酒店,184,Economic chain hotel
327,武汉科技会展中心, Wuhan Science and Technology Convention and Exhibition Center,114.38448,30.51491,会展中心,765,Exhibition Center
329,肯德基（汉口火车站店）, KFC (Hankou Railway Station),114.257126,30.615059,快餐厅,760,Fast-food restaurant
358,蔡林记热干面馆(户部巷店), Cai Lin Kee Hot Dry Noodles (Hubu Lane Store ),114.29803,30.546689,快餐厅,688,Fast-food restaurant
1088,毛毛烤虾球, Fluffy Grilled Shrimp Balls,114.34777,30.60102,快餐厅,214,Fast-food restaurant
1130,肯德基 江夏店, KFC Jiangxia Store,114.31354,30.34829,快餐厅,205,Fast-food restaurant
1098,肯德基钢都花园店, KFC Gangdu Garden Store,114.36843,30.6137,快餐厅,212,Fast-food restaurant
1278,靓靓蒸虾 三阳路店, Liangliang Steamed Shrimp Sanyang Road Store,114.30716,30.596899,快餐厅,171,Fast-food restaurant
1129,馋艺堂 武汉天地店, Ganyitang Wuhan Tiandi Store,114.31023,30.6072,快餐厅,206,Fast-food restaurant
727,周黑鸭 汉口火车站二店, Zhou Hei Ya Hankou Railway Station Second Branch,114.25806,30.61813,快餐厅,339,Fast-food restaurant
1363,肯德基吴家山餐厅, KFC Wujiashan Restaurant,114.13869,30.62406,快餐厅,158,Fast-food restaurant
1547,肯德基汽车穿梭餐厅 江汉路店, KFC Shuttle Restaurant Jianghan Road Branch,114.28572,30.58378,快餐厅,132,Fast-food restaurant
1281,肯德基汽车穿梭餐厅 庙山店, KFC Shuttle Restaurant Temple Mountain Branch,114.37128,30.41048,快餐厅,170,Fast-food restaurant
697,秀玉红茶坊 摩尔城店, Xiuyu Black Tea Square Moore City Store,114.20836,30.55783,快餐厅,351,Fast-food restaurant
1549,麦当劳 司门口店, McDonald's Westgate,114.2996,30.54653,快餐厅,132,Fast-food restaurant
1275,五芳斋 总店, Wufangzhai Main Store,114.29607,30.58744,快餐厅,172,Fast-food restaurant
469,秀玉红茶坊(广埠屯店), Xiuyu Black Tea House ( Guangbutun Store ),114.360901,30.52397,快餐厅,533,Fast-food restaurant
670,肯德基 黄陂广场店, KFC Huangpi Plaza,114.37233,30.88106,快餐厅,363,Fast-food restaurant
1248,肯德基 鲁巷广场店, KFC Lu Lane Plaza,114.39721,30.50675,快餐厅,177,Fast-food restaurant
1307,光谷天地肯德基, Optics Valley World KFC,114.409486,30.479071,快餐厅,167,Fast-food restaurant
1572,麦当劳(中心百货店店), McDonald's ( Central department store ),114.29011,30.58167,快餐厅,130,Fast-food restaurant
1314,肯德基(武大店), KFC ( Wudadian ),114.356996,30.533205,快餐厅,166,Fast-food restaurant
1233,秀玉红茶坊（光谷天地店）, Xiuyu Black Tea House (Optics Valley Tiandi),114.41014,30.477273,快餐厅,181,Fast-food restaurant
1488,秀玉红茶坊(武昌店), Xiuyu Black Tea House ( Wuchang store ),114.354469,30.52939,快餐厅,140,Fast-food restaurant
97,巴厘龙虾馆, Bali Lobster Restaurant,114.26793,30.59189,快餐厅,2118,Fast-food restaurant
1322,汉口精武 武昌火车站店, Hankou Jingwu Wuchang Railway Station Branch,114.31686,30.52918,快餐厅,165,Fast-food restaurant
1213,武汉广场美食广场, Wuhan Plaza Food Court,114.26952,30.58066,快餐厅,185,Fast-food restaurant
1212,麦当劳 亚贸店, McDonald's Asia Trade Store,114.34237,30.52916,快餐厅,185,Fast-food restaurant
437,麦当劳(汉口火车站店), McDonald's ( Hankou Railway Station Store ),114.25795,30.616739,快餐厅,576,Fast-food restaurant
1614,518玉龙香辣虾 铭新街店, 518 Yulong Spicy Shrimp Ming New Street Store,114.2886,30.58422,快餐厅,126,Fast-food restaurant
1203,秀玉红茶坊(司门口店), Xiuyu Black Tea House ( Simen Store ),114.300567,30.548088,快餐厅,187,Fast-food restaurant
425,群光广场美食广场, Qunguang Plaza Food Court,114.35402,30.52603,快餐厅,594,Fast-food restaurant
593,秀玉红茶坊(销品茂店), Xiuyu Black Tea House ( Pinmao Store ),114.343071,30.588711,快餐厅,408,Fast-food restaurant
1335,肯德基 销品茂, Kentucky Fried Chicken,114.3444,30.58904,快餐厅,162,Fast-food restaurant
597,吉庆街夜市大排档,Jiqing Street Night Market Food Stalls,114.294505,30.586869,快餐厅,406,Fast-food restaurant
1197,肯德基 天河机场店, KFC Tianhe Airport Store,114.20899,30.76687,快餐厅,188,Fast-food restaurant
1194,必胜客群光广场店, Pizza Hut Qunguang Plaza,114.35502,30.52575,快餐厅,189,Fast-food restaurant
64,吉庆街美食一条街, Jiqing Street Food Street,114.2916,30.58556,快餐厅,2833,Fast-food restaurant
1579,肯德基 民航新村中百店, KFC Civil Aviation New Village Zhongbai Branch,114.24002,30.62497,快餐厅,129,Fast-food restaurant
1164,麦当劳(竹叶山店), McDonald's ( Zhuyeshan Store ),114.286392,30.62042,快餐厅,194,Fast-food restaurant
484,麦当劳 民众乐园店, McDonald's People's Paradise,114.28808,30.57661,快餐厅,509,Fast-food restaurant
639,真功夫 武昌火车站店, True Kung Fu Wuchang Railway Station,114.31384,30.52628,快餐厅,380,Fast-food restaurant
1625,首义园小吃街, Shouyiyuan Snack Street,114.299591,30.539808,快餐厅,125,Fast-food restaurant
1626,常青小吃城, Evergreen Snack City,114.23284,30.63545,快餐厅,125,Fast-food restaurant
1155,秀玉红茶坊 汉口新华店, Xiuyu Black Tea House Hankou Xinhua Branch,114.2733,30.59123,快餐厅,197,Fast-food restaurant
380,麦当劳(武昌火车站店), McDonald's ( Wuchang Railway Station Store ),114.317673,30.528391,快餐厅,664,Fast-food restaurant
377,光谷世界城3楼美食区, Optics Valley World City 3 Floor food area,114.40003,30.50492,快餐厅,670,Fast-food restaurant
1137,麦当劳 武商百盛店, McDonald's Wushang Parkson Store,114.25168,30.6083,快餐厅,203,Fast-food restaurant
1225,麦当劳 钟家村店, McDonald's Zhongjia Village Store,114.26636,30.54917,快餐厅,182,Fast-food restaurant
1115,肯德基 司门口店, KFC Department Store,114.29857,30.54326,快餐厅,208,Fast-food restaurant
1516,秀玉红茶坊(钟家村店), Xiuyu Black Tea House ( Zhongjia Village Store ),114.268,30.5497,快餐厅,136,Fast-food restaurant
783,秀玉红茶坊(银泰百货店), Xiuyu Black Tea House ( Intime Department Store ),114.333633,30.53758,快餐厅,310,Fast-food restaurant
784,荷花亭 大洋店, Lotus Pavilion Dayang Store,114.29018,30.5778,快餐厅,310,Fast-food restaurant
789,秀玉红茶坊(宝丰路店), Xiuyu Black Tea House ( Baofeng Road Store ),114.255081,30.577271,快餐厅,309,Fast-food restaurant
937,麦当劳南湖餐厅, McDonald's South Lake Restaurant,114.314412,30.510996,快餐厅,256,Fast-food restaurant
1051,肥肥虾庄 石牌岭店, Fatty Shrimp Village Shipailing Store,114.342,30.52206,快餐厅,222,Fast-food restaurant
939,蔡林记热干面馆(汉口旗舰店), Cai Lin Kee Hot Dry Noodles ( Hankou Flagship Store ),114.289642,30.57629,快餐厅,256,Fast-food restaurant
1046,肯德基 新敦店, KFC Newtown store,114.21855,30.60659,快餐厅,224,Fast-food restaurant
1043,必胜客(光谷店), Pizza Hut ( Optics Valley Store ),114.39312,30.50967,快餐厅,225,Fast-food restaurant
1502,肯德基 西汇店, KFC Westhui Branch,114.22178,30.58433,快餐厅,137,Fast-food restaurant
1671,麦当劳(珞狮路店), McDonald's ( Luoshi Road Store ),114.34996,30.51452,快餐厅,121,Fast-food restaurant
1066,麦当劳 楚河汉街店, McDonald's Chuhehan Street Store,114.346225,30.55361,快餐厅,219,Fast-food restaurant
1035,德克士 武昌火车站店, Dicos Wuchang Railway Station,114.31595,30.53119,快餐厅,229,Fast-food restaurant
1503,华中科技大学韵苑学生食堂, Huazhong University of Science and Technology Yunyuan Student Canteen,114.43522,30.51386,快餐厅,137,Fast-food restaurant
1429,肯德基 花桥店, KFC Huaqiao Store,114.28623,30.61386,快餐厅,148,Fast-food restaurant
968,麦当劳青山建七店, McDonald's Qingshan Jianqi Branch,114.400229,30.638489,快餐厅,247,Fast-food restaurant
833,秀玉红茶坊(光谷西班牙风情街店), Xiuyu Black Tea House ( Optics Valley Spanish Style Street Store ),114.402,30.5049,快餐厅,290,Fast-food restaurant
1456,麦当劳 世贸店, McDonald's World Trade Center,114.26857,30.58031,快餐厅,145,Fast-food restaurant
838,永和大王(武昌站店), King Yonghe ( Wuchang Station Store ),114.317545,30.528825,快餐厅,289,Fast-food restaurant
872,麦当劳(华罗利店), McDonald's ( Hua Raoli Store ),114.395843,30.483359,快餐厅,277,Fast-food restaurant
866,肯德基 民意店, KFC Public Opinion Store,114.27715,30.57292,快餐厅,279,Fast-food restaurant
242,HAPPY站台, HAPPY platform,114.290916,30.578461,快餐厅,1009,Fast-food restaurant
858,一茶一坐(汉街店), A tea and a sit ( Han Street Store ),114.337649,30.555987,快餐厅,282,Fast-food restaurant
898,麦当劳 徐东路店, McDonald's Xudong Road Branch,114.34173,30.59128,快餐厅,269,Fast-food restaurant
772,秀玉红茶坊 光谷店, Xiuyu Black Tea Square Optics Valley Store,114.39517,30.50798,快餐厅,316,Fast-food restaurant
1448,一茶一坐 新世界K11新食艺店, A tea and a new world K11 new food shop,114.26643,30.57907,快餐厅,146,Fast-food restaurant
205,肯德基 武昌火车站店, KFC Wuchang Railway Station,114.3171,30.52931,快餐厅,1223,Fast-food restaurant
1537,一茶一坐（武汉新世界店）," One Tea, One Sit (Wuhan New World Store)",114.270068,30.595389,快餐厅,133,Fast-food restaurant
145,虎泉夜市, Huquan Night Market,114.36808,30.51382,快餐厅,1571,Fast-food restaurant
763,麦当劳 光谷步行街店, McDonald's Optics Valley Pedestrian Street,114.4017,30.50553,快餐厅,321,Fast-food restaurant
1077,秀玉红茶坊 世贸店, Xiuyu Black Tea Square World Trade Store,114.2692,30.58017,快餐厅,216,Fast-food restaurant
1646,麦当劳 菱角湖万达店, McDonald's water chestnut lake Wanda store,114.27027,30.60975,快餐厅,123,Fast-food restaurant
1075,麦当劳 崇文书城店, McDonald's Chong Wencheng Store,114.34284,30.51062,快餐厅,216,Fast-food restaurant
765,秀玉红茶坊 璇宫店, Xiuyu Black Tea Square Xuangong Branch,114.28991,30.58206,快餐厅,319,Fast-food restaurant
1481,有间苕店 文书巷店, Youjian Tiaodian Document Lane Store,114.28617,30.57565,快餐厅,141,Fast-food restaurant
1060,狮龙啤酒烧烤屋, Lion Dragon Beer Grill,114.3803,30.62032,特色／地方风味餐厅,220,Features / Local Flavor Restaurant
1514,简朴寨 烽火店, Simple Village Beacon Fire Store,114.29643,30.50559,特色／地方风味餐厅,136,Features / Local Flavor Restaurant
1332,李记热干面 中山大道店, Li Ji Hot Dry Noodles Zhongshan Avenue Store,114.272262,30.570089,特色／地方风味餐厅,162,Features / Local Flavor Restaurant
389,小亮蒸虾(石牌岭店), Xiaoliang Steamed Shrimp ( Shipailing Store ),114.343292,30.523661,特色／地方风味餐厅,641,Features / Local Flavor Restaurant
183,江城明珠豪生大酒店, Howard Johnson Pearl Hotel Jiangcheng,114.304604,30.590401,五星级宾馆,1340,Five -star hotel
1220,东湖大厦, East Lake Building,114.33624,30.55173,五星级宾馆,183,Five -star hotel
164,武汉新世界酒店, Wuhan New World Hotel,114.26604,30.57917,五星级宾馆,1446,Five -star hotel
647,武汉东湖国际会议中心, Wuhan East Lake International Conference Center,114.370519,30.561272,五星级宾馆,374,Five -star hotel
233,武汉锦江国际大酒店, Wuhan Jin Jiang International Hotel,114.27056,30.59637,五星级宾馆,1038,Five -star hotel
1341,武汉中油阳光酒店, Wuhan Zhongyou Sunshine Hotel,114.239112,30.624415,五星级宾馆,161,Five -star hotel
487,纽宾凯新时代国际酒店, New Beacon New Era International Hotel,114.33043,30.53277,五星级宾馆,505,Five -star hotel
461,雄楚国际大酒店, Xiongchu International Hotel,114.36125,30.51021,五星级宾馆,543,Five -star hotel
257,武汉香格里拉大饭店(高雄路)," Shangri-La Hotel, Wuhan ( Kaohsiung Road )",114.28374,30.60326,五星级宾馆,954,Five -star hotel
144,武汉马哥孛罗酒店, Marco Polo Hotel Wuhan,114.301824,30.58564,五星级宾馆,1595,Five -star hotel
582,武汉新华诺富特大饭店, Novotel Wuhan Xinhua Hotel,114.26892,30.59412,五星级宾馆,422,Five -star hotel
73,香格里拉酒店(武汉店), Shangri-La Hotel ( Wuhan store ),114.2828,30.6026,五星级宾馆,2595,Five -star hotel
1366,武汉格雷斯国际花园酒店, Wuhan Grace International Garden Hotel,114.40547,30.461115,五星级宾馆,158,Five -star hotel
350,武汉华美达天禄酒店, Ramada Tianlu Hotel Wuhan,114.26566,30.58144,五星级宾馆,705,Five -star hotel
906,总督府巴山夜雨大酒店, Governor's Mansion Bashan Yeyu Hotel,114.33255,30.54421,五星级宾馆,267,Five -star hotel
1455,瑞雅莲花湖酒店, Ruiya Lotus Lake Hotel,114.02758,30.58627,四星级宾馆,145,Four -star hotel
1485,帅府饭店(八一路), Shuaifu Hotel ( Bayi Road ),114.3476,30.53637,四星级宾馆,140,Four -star hotel
807,纽宾凯国际酒店, New Beacon International Hotel,114.27291,30.59246,四星级宾馆,299,Four -star hotel
761,葛洲坝大酒店, Gezhouba Hotel,114.25138,30.57652,四星级宾馆,321,Four -star hotel
941,斯博兰花园酒店, Sporland Garden Hotel,114.28338,30.63983,四星级宾馆,255,Four -star hotel
1558,紫阳湖宾馆, Ziyang Lake Hotel,114.30243,30.5339,四星级宾馆,131,Four -star hotel
1393,武汉大余湾尚书府度假酒店, Wuhan Dayu Bay Shangshufu Resort Hotel,114.369457,31.02622,四星级宾馆,154,Four -star hotel
682,君宜王朝大饭店, Junyi Dynasty Hotel,114.3594,30.52523,四星级宾馆,356,Four -star hotel
658,武汉纽宾凯金银湖国际酒店,Wuhan New Beacon Jinyinhu International Hotel,114.205206,30.63665,四星级宾馆,369,Four -star hotel
1362,武钢宾馆, Wuhan Iron and Steel Hotel,114.36743,30.62047,四星级宾馆,158,Four -star hotel
1430,武汉梨园大酒店, Wuhan Liyuan Hotel,114.36483,30.57632,四星级宾馆,148,Four -star hotel
1444,弘毅大酒店, Hongyi Hotel,114.35563,30.55135,四星级宾馆,146,Four -star hotel
1028,金盾大酒店, Golden Shield Hotel,114.26359,30.60041,四星级宾馆,231,Four -star hotel
326,亚洲大酒店,Asia Hotel,114.2613,30.57752,四星级宾馆,767,Four -star hotel
1622,东鑫大酒店, Dongxin Hotel,114.21227,30.5611,四星级宾馆,125,Four -star hotel
1174,香江家居, Hong Kong Home Furnishings,114.22113,30.59922,家具建材市场,192,Furniture Building Material Market
1069,南国·大武汉家装品牌建材大本营, Southland · Wuhan home improvement brand building materials base,114.22208,30.58671,家具建材市场,218,Furniture Building Material Market
1523,汉来广场, Hi Lai Plaza,114.29071,30.57215,家具建材市场,135,Furniture Building Material Market
1057,金钱豹龙会所中餐, Golden Leopard Dragon Club Chinese Food,114.28844,30.56774,广东菜,221,Guangdong cuisine
62,翠华餐厅, Tsui Wah Restaurant,114.343376,30.555339,广东菜,2850,Guangdong cuisine
690,当年情港式茶餐厅 解放大道店, Love Hong Kong-style tea restaurant Jiefang Avenue Branch,114.2597,30.57736,广东菜,354,Guangdong cuisine
829,太兴餐厅, Taixing Restaurant,114.269065,30.569389,广东菜,291,Guangdong cuisine
745,丽豪港式茶餐厅, Lihao Hong Kong Style Tea Restaurant,114.31034,30.60753,广东菜,330,Guangdong cuisine
996,当年情港式茶餐厅 菱角湖万达店," Love Hong Kong-style tea restaurant, Lingjiao Lake Wanda Store",114.2719,30.61588,广东菜,240,Guangdong cuisine
948,琴台食上, food on the piano,114.26442,30.56104,广东菜,253,Guangdong cuisine
478,广东商会酒楼, Guangdong Chamber of Commerce Restaurant,114.27193,30.6033,广东菜,523,Guangdong cuisine
439,国锦轩, Guojinxuan,114.27173,30.57993,广东菜,571,Guangdong cuisine
1386,又一掂香港美食餐厅 武商路店, Another Dian Hong Kong Food Restaurant Wushang Road Branch,114.270507,30.57905,广东菜,155,Guangdong cuisine
333,武汉丹枫白露酒店, Wuhan Danfeng Bailu Hotel,114.301613,30.598238,广东菜,751,Guangdong cuisine
920,新俊得月楼, Xinjundeyuelou,114.266242,30.559792,广东菜,261,Guangdong cuisine
99,武汉大学人民医院, Wuhan University People's Hospital,114.29853,30.53515,医院,2086,Hospital
433,武汉市普仁医院, Wuhan Puren Hospital,114.38132,30.63113,医院,581,Hospital
480,武汉市儿童医院, Wuhan Children's Hospital,114.287662,30.603421,医院,516,Hospital
919,武汉科技大学附属天佑医院, Tianyou Hospital Affiliated to Wuhan University of Science and Technology,114.32603,30.52446,医院,261,Hospital
1261,江夏区第一人民医院, The First People's Hospital of Jiangxia District,114.31557,30.34794,医院,174,Hospital
451,中国人民解放军第一六一医院, The 161st Hospital of the Chinese People's Liberation Army,114.30693,30.61427,医院,556,Hospital
970,协和医院外科楼, Union Hospital Surgery Building,114.27532,30.58315,医院,246,Hospital
934,湖北省新华医院, Hubei Xinhua Hospital,114.27379,30.60748,医院,256,Hospital
1256,长江航运总医院(惠济路), Changjiang Shipping General Hospital ( Huiji Road ),114.28759,30.60642,医院,175,Hospital
1471,武警医院, Armed Police Hospital,114.31306,30.54397,医院,141,Hospital
546,武钢总医院, Wuhan Iron and Steel General Hospital,114.404442,30.631861,医院,451,Hospital
512,武汉市中医医院, Wuhan Traditional Chinese Medicine Hospital,114.29777,30.58851,医院,480,Hospital
1484,空军医院, Air Force Hospital,114.306549,30.619749,医院,140,Hospital
1607,广州军区武汉总医院, Wuhan General Hospital of Guangzhou Military Region,114.344963,30.531332,医院,126,Hospital
508,湖北省中医院, Hubei Provincial Hospital of Traditional Chinese Medicine,114.30942,30.55005,医院,482,Hospital
1666,武汉市第八医院, Wuhan Eighth Hospital,114.305737,30.603523,医院,121,Hospital
74,华中科技大学同济医学院附属协和医院," Union Hospital Affiliated to Tongji Medical College, Huazhong University of Science and Technology",114.275742,30.58349,医院,2575,Hospital
547,湖北省人民医院, Hubei Provincial People's Hospital,114.29853,30.53515,医院,451,Hospital
1085,华中科技大学同济医学院医院, Huazhong University of Science and Technology Tongji Medical College Hospital,114.25993,30.58569,医院,214,Hospital
590,武汉中心医院, Wuhan Central Hospital,114.294807,30.581551,医院,412,Hospital
722,协和医院门诊部, Union Hospital Outpatient Department,114.276022,30.584364,医院,341,Hospital
316,武汉市第二医院, Wuhan Second Hospital,114.29486,30.58168,医院,786,Hospital
707,武警湖北省总队医院, Armed Police Hubei Provincial Corps Hospital,114.316559,30.542244,医院,345,Hospital
1059,武汉市第六医院(江汉大学附属医院), Wuhan Sixth Hospital ( Affiliated Hospital of Jianghan University ),114.2897,30.60015,医院,220,Hospital
681,武汉市第三医院, Wuhan Third Hospital,114.30203,30.54024,医院,356,Hospital
51,华中科技大学同济医学院附属同济医院," Huazhong University of Science Tongji Hospital, Tongji Medical College",114.262128,30.579312,医院,3387,Hospital
672,武汉市妇女儿童医疗保健中心, Wuhan Women's and Children's Health Care Center,114.28822,30.60227,医院,361,Hospital
1149,湖北省肿瘤医院, Hubei Cancer Hospital,114.36589,30.50167,医院,199,Hospital
793,武汉市汉阳医院, Wuhan Hanyang Hospital,114.24461,30.54798,医院,307,Hospital
1049,协和医院西区, Union Hospital West District,114.17349,30.4919,医院,223,Hospital
802,省荣军医院, Provincial Invalids Hospital,114.3767,30.50518,医院,301,Hospital
1038,武汉血液中心, Wuhan Blood Center,114.25317,30.58014,医院,227,Hospital
273,湖北省中医院(光谷院区), Hubei Provincial Hospital of Traditional Chinese Medicine ( Optics Valley Campus ),114.407816,30.507007,医院,913,Hospital
634,武汉市普爱医院, Wuhan Puai Hospital,114.20512,30.59289,医院,382,Hospital
1428,武昌铁路医院, Wuchang Railway Hospital,114.34255,30.60214,医院,148,Hospital
1154,武汉市东西湖区人民医院, Wuhan Dongxihu District People's Hospital,114.13316,30.62587,医院,197,Hospital
1180,武汉市第十一医院, Wuhan No. 1 Hospital,114.273132,30.613779,医院,191,Hospital
596,武汉市精神病医院, Wuhan Psychiatric Hospital,114.27487,30.57474,医院,406,Hospital
1001,黄陂区人民医院, Huangpi District People's Hospital,114.37635,30.87265,医院,238,Hospital
263,湖北省妇幼保健院, Hubei Maternal and Child Health Hospital,114.35179,30.52759,医院,940,Hospital
114,武汉大学中南医院, Wuhan University Zhongnan Hospital,114.353635,30.552967,医院,1917,Hospital
68,广州军区武汉总医院(中南医院、陆军总院)," Wuhan General Hospital of Guangzhou Military Region ( Zhongnan Hospital, Army General Hospital )",114.344322,30.530001,医院,2640,Hospital
424,湖北省中山医院, Zhongshan Hospital of Hubei Province,114.254111,30.568989,医院,594,Hospital
252,武汉大学口腔医院, Wuhan University Stomatological Hospital,114.365067,30.5224,医院,970,Hospital
1189,武汉市第九医院, Wuhan Ninth Hospital,114.38032,30.62415,医院,189,Hospital
67,武汉市第一医院, Wuhan First Hospital,114.27166,30.57235,医院,2645,Hospital
601,武汉亚洲心脏病医院, Wuhan Asian Heart Hospital,114.28231,30.58313,医院,403,Hospital
458,东湖宾馆, East Lake Hotel,114.3611,30.556979,旅馆招待所,550,Hotel guest house
771,武汉帝盛酒店, Dorsett Wuhan,114.289147,30.584961,旅馆招待所,316,Hotel guest house
173,武汉华美达光谷大酒店, Ramada Optics Valley Hotel Wuhan,114.39749,30.50627,旅馆招待所,1401,Hotel guest house
1356,兆瑞国际大酒店,Zhaorui International Hotel,114.28422,30.602894,旅馆招待所,159,Hotel guest house
988,喜瑞得大酒店, Celadon Hotel,114.158763,30.493413,旅馆招待所,241,Hotel guest house
660,洪广大酒店, Hongguang Hotel,114.333883,30.544348,旅馆招待所,366,Hotel guest house
188,武汉光谷金盾大酒店, Wuhan Optics Valley Golden Shield Hotel,114.388629,30.513258,旅馆招待所,1326,Hotel guest house
873,武汉保利白玫瑰大酒店,Wuhan Poly White Rose Hotel,114.335405,30.544242,旅馆招待所,277,Hotel guest house
1377,易斯特国际酒店, East International Hotel,114.377151,30.53344,旅馆招待所,156,Hotel guest house
1295,中天世纪大酒店, Zhongtian Century Hotel,114.393433,30.478621,旅馆招待所,168,Hotel guest house
1446,洪山宾馆, Hongshan Hotel,114.338097,30.54834,旅馆招待所,146,Hotel guest house
1099,卓悦假日酒店, Bonjour Holiday Hotel,114.367973,30.51396,旅馆招待所,212,Hotel guest house
909,长江大酒店, Changjiang Hotel,114.266403,30.580139,旅馆招待所,265,Hotel guest house
1648,黄记煌三汁焖锅(光谷天地店), Huang Jihuang Three Juice Stew ( Optics Valley Store ),114.416,30.4821,火锅店,123,Hotpot restaurant
926,江胖子猪弯弯火锅 知音店, Jiang Fatzi Zhuwanwan Hot Pot Zhiyin Restaurant,114.21088,30.56543,火锅店,259,Hotpot restaurant
1636,重庆光富火锅 南京路店, Chongqing Guangfu Hotpot Nanjing Road Branch,114.29312,30.58288,火锅店,124,Hotpot restaurant
1647,小肥羊 体育馆路店, Little Sheep Gymnasium Road Store,114.3358,30.547,火锅店,123,Hotpot restaurant
995,黄记煌三汁焖锅 俊华大厦店,Huang Jihuang Three Juice Stewed Pot Junhua Building Store,114.287648,30.583911,火锅店,240,Hotpot restaurant
526,胖锅轩(新华店), Fat Pot Xuan ( Xinhuadian ),114.271851,30.601061,火锅店,470,Hotpot restaurant
930,麻辣空间 武汉国际广场店, Spicy Space Wuhan International Plaza,114.271867,30.580472,火锅店,258,Hotpot restaurant
1058,满旗楼涮羊肉, Manqilou Shabu-shabu Lamb,114.29836,30.57894,火锅店,221,Hotpot restaurant
1249,满堂红串串香平价美食城武汉总店, Full House Hong Chuan Chuan Xiang Cheap Food City Wuhan Main Store,114.28836,30.58427,火锅店,177,Hotpot restaurant
910,红鼎豆捞 街道口店, Hongding Doulao Street Branch Store,114.35383,30.5272,火锅店,265,Hotpot restaurant
1041,红鼎豆捞(光谷店), Hong Ding Dou Lao ( Optics Valley Store ),114.429906,30.505889,火锅店,226,Hotpot restaurant
54,海底捞火锅(凯德广场店), Haidilao Hot Pot ( CapitaMall store ),114.269065,30.569383,火锅店,3277,Hotpot restaurant
638,红鼎豆捞 京汉店, Hongding Doulao Jinghan Store,114.28319,30.58233,火锅店,380,Hotpot restaurant
1033,黄记煌三汁焖锅 花园道店, Huang Ji Huang Three Juice Stewed Pot Garden Road,114.26397,30.595684,火锅店,230,Hotpot restaurant
1167,红鼎豆捞 水果湖店, Hongding Doulao Fruit Lake Store,114.34505,30.55052,火锅店,194,Hotpot restaurant
1623,靓家火锅(岳家嘴店), Liangjia Hot Pot ( Yuejiazui Store ),114.363,30.5732,火锅店,125,Hotpot restaurant
1661,傣妹 ATM店, Dai sister ATM shop,114.29087,30.58174,火锅店,122,Hotpot restaurant
1282,重庆朝天门火锅 鲁磨路店, Chongqing Chaotianmen Hotpot Lumo Road Store,114.399687,30.511351,火锅店,170,Hotpot restaurant
1675,凯威啤酒屋 销品茂店, Kaiwei Beer House Pinmao Store,114.343753,30.588892,火锅店,121,Hotpot restaurant
1422,傣妹 司门口店, Daimei Simenkou Store,114.29927,30.54646,火锅店,150,Hotpot restaurant
367,玉林串串香, Yulin Chuanchuanxiang,114.371,30.5126,火锅店,676,Hotpot restaurant
378,唐人曾原味火锅水果湖店, Tangren Zeng Yuanwei Hotpot Fruit Lake Store,114.34613,30.545524,火锅店,669,Hotpot restaurant
473,胖锅轩（民主路店）, Pangguoxuan (Minzhu Road Store),114.33106,30.54441,火锅店,529,Hotpot restaurant
1378,重庆朝天门火锅 卓刀泉店, Chongqing Chaotianmen Hotpot Zhuodaoquan Store,114.36653,30.50946,火锅店,156,Hotpot restaurant
1291,水货火锅城 前进四路店, Parallel Hot Pot City Qianjin 4th Road Store,114.28786,30.57845,火锅店,169,Hotpot restaurant
1507,黄记煌三汁焖锅(司门口ATM店), Huang Jihuang Three Juice Stew ( Simen ATM shop ),114.302,30.5444,火锅店,137,Hotpot restaurant
1350,战锅策创意火锅餐厅 汉口店 Changood Hot-pot Restaurant, Zhan Guoce Creative Hot Pot Restaurant Hankou Branch Changood Hot-pot Restaurant,114.31008,30.60747,火锅店,160,Hotpot restaurant
1527,三国英雄 司门口店, Three Kingdoms Heroes,114.29993,30.54781,火锅店,135,Hotpot restaurant
1358,黄记煌三汁焖锅(佳丽广场店), Huang Jihuang Three Juice Stew ( Belle Plaza Store ),114.291496,30.578266,火锅店,159,Hotpot restaurant
1435,凯威啤酒屋 时尚店, Kavier House Fashion Store,114.29008,30.58211,火锅店,148,Hotpot restaurant
466,胖锅轩(自治街店), Fat Pot Xuan ( Autonomous Street Store ),114.28524,30.58115,火锅店,538,Hotpot restaurant
442,红鼎豆捞 香港路旗舰店, Hongding Doulao Hong Kong Road Flagship Store,114.28866,30.60216,火锅店,566,Hotpot restaurant
668,湖锦酒楼 光谷店, Hujin Restaurant Optics Valley Branch,114.41706,30.508604,湖北菜,364,Hubei
265,颐和尚景酒店, Yihe Shangjing Hotel,114.44258,30.50355,湖北菜,933,Hubei
1238,亢龙太子酒轩 洪山店, Kanglong Prince Wine House Hongshan Branch,114.33352,30.54915,湖北菜,179,Hubei
1080,1919酒店, 1919 hotel,114.300412,30.641081,湖北菜,215,Hubei
1024,食尚坊 TheFashionDiningRoom, Food Shangfang TheFashionDiningRoom,114.292516,30.591294,湖北菜,233,Hubei
978,艳阳天美食广场 彭刘杨路店, Yanyangtian Food Court Pengliuyang Road Branch,114.29931,30.53993,湖北菜,244,Hubei
426,湖锦酒楼 锦江店, Hujin Restaurant Jinjiang Branch,114.30597,30.5621,湖北菜,591,Hubei
1146,刘胖子家常菜 金色古田店, Fatty Liu's Home Cooking Golden Gutian Store,114.213882,30.593498,湖北菜,200,Hubei
1078,莉莉周花园餐厅, Lily Zhou Garden Restaurant,114.30885,30.60176,湖北菜,216,Hubei
1601,小贝壳酒楼, Small Shell Restaurant,114.30307,30.59084,湖北菜,127,Hubei
1152,丽华园 工业二路店, Lihuayuan Industrial Second Road Store,114.39668,30.62653,湖北菜,198,Hubei
1602,赛江南艺术餐厅 沿江大道店,Sai Jiangnan Art Restaurant Yanjiang Avenue Branch,114.30734,30.59627,湖北菜,127,Hubei
1660,简朴寨 杨家湾店, Jianpuzhai Yangjiawan Store,114.38396,30.50319,湖北菜,122,Hubei
1329,俏立方, Pretty Cube,114.343622,30.55293,湖北菜,163,Hubei
1609,小蓝鲸大酒店(杂技厅店), Little Blue Whale Hotel ( Acrobatic Shop ),114.277687,30.599449,湖北菜,126,Hubei
1657,简朴寨 蔡甸店, Jianpuzhai Caidian Store,114.03146,30.57566,湖北菜,122,Hubei
569,老汉口, Laohankou,114.28373,30.5874,湖北菜,434,Hubei
1439,九大碗, nine bowls,114.41574,30.52396,湖北菜,147,Hubei
299,黄记煌, Huang Jihuang,114.333846,30.560625,湖北菜,833,Hubei
1610,武汉小城故事餐厅 台北路店, Wuhan Small Town Story Restaurant Taipei Road Branch,114.28254,30.60008,湖北菜,126,Hubei
1406,美味故事特色餐厅 风光村店, Tasty Story Specialty Restaurant Scenery Village,114.375609,30.530813,湖北菜,152,Hubei
1515,艳阳天旺角酒店(京汉大道店), Sunny Day Mongkok Hotel ( Jinghan Avenue Store ),114.271027,30.575979,湖北菜,136,Hubei
1011,华中农业大学国际交流中心餐厅, Huazhong Agricultural University International Exchange Center Restaurant,114.3501,30.47598,湖北菜,236,Hubei
290,亢龙太子酒轩 雄楚大街店, Kanglong Prince Wine Inn Xiongchu Street Branch,114.34851,30.50995,湖北菜,858,Hubei
314,亢龙太子酒轩(临江总店), Kanglong Prince Wine House ( Linjiang Main Store ),114.308891,30.597931,湖北菜,790,Hubei
854,荔晶时代餐厅 麟趾路店, Lijing Times Restaurant Linzhi Road Branch,114.30212,30.60059,湖北菜,283,Hubei
1020,我家小馆, my house,114.267578,30.569122,湖北菜,234,Hubei
811,圣淘沙酒店, Sentosa Hotels,114.26573,30.58902,湖北菜,298,Hubei
356,湖锦酒楼正银国宴店, Hujin Restaurant Zhengyin State Banquet Branch,114.27101,30.59957,湖北菜,689,Hubei
1632,简朴寨 前进二路店, Jianpuzhai Qianjin 2nd Road Store,114.28427,30.57848,湖北菜,124,Hubei
944,王府井酒店(金桥港湾店), Wangfujing Hotels ( Jinqiao Harbor Store ),114.264,30.5286,湖北菜,254,Hubei
693,湖锦酒楼(菱角湖万达店), Lake Jin Restaurant ( Water chestnut lake Wanda store ),114.271,30.6091,湖北菜,353,Hubei
606,巴山夜雨总督府, Bashan Yeyu Governor's Palace,114.33429,30.5444,湖北菜,401,Hubei
186,三五醇酒店, Three Five Alcohol Hotel,114.27111,30.60026,湖北菜,1337,Hubei
1669,东方大酒店, Oriental Hotel,114.25888,30.61553,湖北菜,121,Hubei
1409,梦天湖山庄, Dream Lake Villa,114.360107,30.371345,湖北菜,152,Hubei
731,湘鄂情 体育馆路店, Xiang-Eqing Stadium Road Store,114.33427,30.54596,湖北菜,337,Hubei
625,新海景酒店, New Seaview Hotel,114.23866,30.57569,湖北菜,387,Hubei
1633,食尚坊, Food Shangfang,114.40544,30.45921,湖北菜,124,Hubei
913,楚灶王大酒店 雄楚大街总店, Chu Zaowang Hotel Xiongchu Street Main Branch,114.33587,30.516,湖北菜,264,Hubei
527,湖锦酒楼 八一路店, Hujin Restaurant Bayi Road Branch,114.34281,30.53836,湖北菜,469,Hubei
1637,小田园鱼丸,Xiaotianyuan fish balls,114.379821,30.426221,湖北菜,124,Hubei
1410,艳阳景轩, Sunny View,114.29167,30.64363,湖北菜,152,Hubei
1546,武汉创意宾馆贵宾楼, Wuhan Creative Hotel VIP Building,114.30805,30.62131,湖北菜,132,Hubei
1343,湖锦新海景酒店 东西湖店, Hujin New Seaview Hotel Dongxihu Branch,114.13843,30.6305,湖北菜,161,Hubei
1104,谢先生餐厅(沙湖店), Mr. Xie Restaurant ( Shahudian ),114.317886,30.55459,湖北菜,211,Hubei
803,金贵源食神酒店, Jinguiyuan Food God Hotel,114.336354,30.556435,湖北菜,301,Hubei
133,亢龙太子酒轩(金融店), Kanglong Prince Wine House ( financial shop ),114.273338,30.59705,湖北菜,1691,Hubei
557,口味堂（武昌店）, Taste Hall (Wuchang Store),114.383078,30.516056,湖南菜,446,Hunan cuisine
1506,芙蓉堂, Furongtang,114.3099,30.60725,湖南菜,137,Hunan cuisine
1232,口味堂 惠济路店, Weiweitang Huiji Road Store,114.29039,30.60921,湖南菜,181,Hunan cuisine
1125,武汉大学科技园, Wuhan University Science and Technology Park,114.4105,30.4573,产业园区,206,Industrial Park
1186,武汉东湖中国光谷, Wuhan East Lake China Optics Valley,114.385472,30.515492,产业园区,190,Industrial Park
1355,美的集团武汉工业园, Midea Group Wuhan Industrial Park,114.11354,30.46083,产业园区,159,Industrial Park
724,东湖国家高新技术开发区管理委员会, Donghu National High-tech Development Zone Management Committee,114.384481,30.514916,产业园区,340,Industrial Park
671,华中科技大学科技园, Huazhong University of Science and Technology Science Park,114.39871,30.45045,产业园区,362,Industrial Park
1423,泰迪厨房, Teddy Kitchen,114.29066,30.57842,意式菜品餐厅,150,Italian dish restaurant
1042,上井日本料理 新华路店, Shangjing Japanese Restaurant Xinhua Road Branch,114.27446,30.58915,日本料理,226,Japanese food
1487,渔寿司, fish sushi,114.272356,30.579996,日本料理,140,Japanese food
1277,禾绿回转寿司 新佳丽店, Helv Conveyor Sushi Xinjiali Store,114.2906,30.58014,日本料理,171,Japanese food
1031,仓桥家日本料理(世贸店), Kurabashi Japanese Restaurant ( World Trade Store ),114.268929,30.58012,日本料理,231,Japanese food
1087,味藏日本料理馆 高雄路店, Mizo Japanese Restaurant Kaohsiung Road Branch,114.28452,30.60297,日本料理,214,Japanese food
648,仓桥家日本料理(群光店), Kurabashi Japanese Restaurant ( Qunguangdian ),114.355553,30.52545,日本料理,374,Japanese food
381,仓桥家日本料理(光谷店), Kurabashi Japanese Restaurant ( Optics Valley Store ),114.401443,30.50552,日本料理,662,Japanese food
591,上井日本料理(武汉国际广场店), Uei Japanese Cuisine ( Wuhan International Plaza Store ),114.273,30.5802,日本料理,412,Japanese food
1379,大渔铁板烧(武汉国际广场店), Dayu Teppanyaki ( Wuhan International Plaza Store ),114.273,30.58,日本料理,156,Japanese food
530,仓桥家日本料理(江汉路店), Kurabashi Japanese Restaurant ( Jianghan Road Store ),114.291054,30.57855,日本料理,467,Japanese food
289,欢乐空间量贩式KTV(光谷店), Happy Space KTV( Optics Valley Store ),114.400642,30.50395,KTV,860,KTV
589,阿曼达KTV, Amanda KTV,114.288257,30.583494,KTV,412,KTV
1557,奇点道量贩式KTV(光谷店), Singularity Road KTV( Optics Valley Store ),114.396883,30.495847,KTV,131,KTV
799,阳光钱柜KTV, Sunshine Cash Box KTV,114.342201,30.539534,KTV,302,KTV
1433,满天星量贩式KTV, Gypsophila KTV,114.39939,30.50897,KTV,148,KTV
278,中央大街·生活摩尔城, Central Avenue · Living Moore City,114.328965,30.353923,KTV,902,KTV
411,米乐星世界KTV, Mile Star World KTV,114.26847,30.59462,KTV,610,KTV
420,公馆(中南店), mansion ( Zhongnan Store ),114.332802,30.535749,KTV,600,KTV
1342,欢乐空间量贩式KTV(八一路), Happy Space KTV( Bayi Road ),114.370586,30.529248,KTV,161,KTV
397,优畅时尚KTV, Youchang Fashion KTV,114.353835,30.526156,KTV,630,KTV
407,武汉米乐星-西园旗舰店, Wuhan Mi Lexing - West Park Flagship Store,114.268177,30.585192,KTV,620,KTV
238,米乐星(武昌店), Mi Lexing ( Wuchang store ),114.300209,30.539419,KTV,1025,KTV
322,欢乐空间量贩式KTV(徐东大街店), Happy Space KTV( Xudong Street Store ),114.343826,30.588949,KTV,777,KTV
321,公馆(国际广场店), mansion ( International Plaza Store ),114.398228,30.507739,KTV,779,KTV
395,公馆(中山店), mansion ( Zhongshan Store ),114.2696,30.581221,KTV,634,KTV
1253,炫丽时光ktv, dazzling time ktv,114.271773,30.598068,KTV,176,KTV
1250,公馆KTV(二七店), mansion KTV( Erqidian ),114.302735,30.614057,KTV,177,KTV
1265,公馆KTV中山店, mansion KTV Zhongshan Store,114.318819,30.623921,KTV,174,KTV
969,满天星量贩式KTV(汉阳店), Gypsophila KTV( Hanyang Store ),114.210693,30.561001,KTV,247,KTV
1128,欢乐空间量贩式KTV(江汉路店), Happy Space KTV( Jianghan Road Store ),114.286697,30.58456,KTV,206,KTV
139,米乐星(汉口店), Mi Lexing ( Hankou Store ),114.284729,30.57439,KTV,1640,KTV
521,卡酷时尚主题KTV, Card Cool Fashion Theme KTV,114.272666,30.597167,KTV,473,KTV
1570,欢乐空间KTV（江汉路店）, happy space KTV (Jianghan Road Store),114.298263,30.582475,KTV,130,KTV
1495,欢乐空间KTV（黄陂广场店）, happy space KTV (Huangpi Square Store),114.379853,30.886897,KTV,138,KTV
498,呼啦啦KTV, hula la KTV,114.297852,30.53735,KTV,490,KTV
989,公馆KTV沌口店, mansion KTV Zhuankoudian,114.169587,30.497987,KTV,241,KTV
494,歌迷量贩ktv武汉会展店, fan sales ktv Wuhan Convention and Exhibition Store,114.274228,30.580177,KTV,495,KTV
567,好乐迪量贩KTV, holody mass seller KTV,114.29302,30.57899,KTV,435,KTV
443,钱柜(武汉店), till ( Wuhan store ),114.29045,30.57867,KTV,566,KTV
394,公馆KTV(友谊店), mansion KTV( Friendship Store ),114.280393,30.573533,KTV,634,KTV
1127,权金城, Kwon Jincheng,114.26643,30.57907,韩国料理,206,Korean cuisine
1054,金韩宫韩国烧烤 群光广场店, Kim Han Palace Korean BBQ Qun Kwang Plaza Branch,114.35528,30.52572,韩国料理,222,Korean cuisine
1346,韩舍韩国烧烤特色餐厅(光谷店), Hanshe Korean BBQ Specialty Restaurant ( Optics Valley Store ),114.402193,30.505315,韩国料理,161,Korean cuisine
534,金韩宫韩国烧烤 沃尔玛店, Kim Han Palace Korean BBQ Walmart Store,114.28958,30.57726,韩国料理,465,Korean cuisine
1573,韩林炭烤 光谷店, Hanlin Charcoal Grilled Optics Valley Store,114.39759,30.50722,韩国料理,130,Korean cuisine
663,金韩宫韩国烧烤(光谷店), Kim Han Palace Korean BBQ ( Optics Valley Store ),114.402805,30.505559,韩国料理,365,Korean cuisine
1040,汉拿山韩式烤肉 菱角湖万达店, Hallasan Korean BBQ Water chestnut Lake Wanda Store,114.27017,30.60936,韩国料理,227,Korean cuisine
1134,武汉市黄陂区汽车客运中心, Wuhan Huangpi District Automobile Passenger Transport Center,114.36939,30.87975,长途汽车站,204,LONG distance BUS STOP
880,武汉汽车客运总站, Wuhan Bus Terminal,114.25278,30.61292,长途汽车站,276,LONG distance BUS STOP
90,湖北省客集团傅家坡汽车客运站, Hubei Provincial Passenger Group Fujiapo Bus Terminal,114.32712,30.53575,长途汽车站,2221,LONG distance BUS STOP
488,傅家坡长途汽车客运站, Fujiapo Coach Terminal,114.327454,30.53528,长途汽车站,504,LONG distance BUS STOP
1442,阳逻汽车客运站, Yangluo Bus Terminal,114.56222,30.66223,长途汽车站,146,LONG distance BUS STOP
309,省客集团新荣村客运站, Provincial Passenger Group Xinrong Village Passenger Station,114.333313,30.65704,长途汽车站,800,LONG distance BUS STOP
198,宏基长途汽车客运站, Acer Coach Terminal,114.31772,30.5334,长途汽车站,1275,LONG distance BUS STOP
705,花园道生活艺术区, Garden Road Living Arts District,114.26467,30.59543,休闲场所,346,Leisure place
470,武汉醉香隆水上农庄, Wuhan Zuixianglong Water Farm,114.4211,30.54244,休闲场所,533,Leisure place
553,桃花岛, Peach Blossom Island,114.22212,30.55175,生活娱乐,448,Life entertainment
253,S. MUSE 苏格缪斯俱乐部武汉店, S. MUSE Sugar Muse Club Wuhan Branch,114.301039,30.581327,生活娱乐,968,Life entertainment
758,荷田会所, Hetian Club,114.40491,30.44954,生活娱乐,322,Life entertainment
847,武昌首义横店电影城, Wuchang Shouyi Hengdian Film City,114.300522,30.536896,生活娱乐,284,Life entertainment
1652,武汉足球俱乐部, Wuhan Football Club,114.36988,30.46055,生活娱乐,122,Life entertainment
108,湖北省图书馆新馆, Hubei Provincial Library New Building,114.331558,30.556442,生活娱乐,1991,Life entertainment
757,Helen\'s Bar（汉口店）, Helen's Bar (Hankou store),114.291721,30.588556,生活娱乐,323,Life entertainment
576,公馆KTV, mansion KTV,114.387313,30.629152,生活娱乐,425,Life entertainment
1231,水立方商务会馆, Water Cube Business Club,114.280952,30.637365,生活娱乐,181,Life entertainment
983,公馆KTV（司门口店）, mansion KTV (Simen Store),114.296507,30.545964,生活娱乐,243,Life entertainment
870,One night A  night club, One night A night club,114.33535,30.559755,生活娱乐,278,Life entertainment
1538,玉笋山人文生态园, Yusun Mountain Humanistic Ecological Park,113.98815,30.53589,生活娱乐,133,Life entertainment
879,凯德广场, CapitaMall,114.271186,30.575767,生活娱乐,276,Life entertainment
669,民族大道欢乐迪Ktv, Happy Die on National Avenue Ktv,114.392294,30.498544,生活娱乐,364,Life entertainment
759,武汉新天地, Wuhan Xintiandi,114.305198,30.603631,生活娱乐,321,Life entertainment
1257,湖北省教育考试院考试服务中心, Hubei Provincial Education Examination Institute Examination Service Center,114.25166,30.62776,生活娱乐,175,Life entertainment
287,五环峰购物广场, Wuhuanfeng Shopping Plaza,114.29844,30.54203,生活娱乐,868,Life entertainment
1482,Muse酒吧, Muse bar,114.300682,30.581195,生活娱乐,141,Life entertainment
800,欢乐迪ktv, Happy Di ktv,114.386276,30.620714,生活娱乐,302,Life entertainment
208,Helens西餐吧(天津路店), Helens western food bar ( Tianjin Road Store ),114.296371,30.585541,生活娱乐,1190,Life entertainment
1173,武汉石化, Wuhan Petrochemical,114.43643,30.6544,生活娱乐,192,Life entertainment
947,清水湾一号公馆, Clearwater Bay Residence No. 1,114.250579,30.584615,生活娱乐,253,Life entertainment
929,新吉庆街欢乐迪," Happy Die, Xinjiqing Street",114.293711,30.586361,生活娱乐,258,Life entertainment
251,五环大道轻轨站, Fifth Ring Road Light Rail Station,114.138434,30.617653,轻轨站,972,Light Rail Station
513,崇仁路轻轨站, Chongren Road Light Rail Station,114.261853,30.574016,轻轨站,479,Light Rail Station
733,硚口路轻轨站, Qiaokou Road Light Rail Station,114.250174,30.571487,轻轨站,336,Light Rail Station
330,大智路轻轨站, Dazhi Road Light Rail Station,114.295364,30.59274,轻轨站,757,Light Rail Station
224,宗关轻轨站, Zongguan Light Rail Station,114.226281,30.580607,轻轨站,1083,Light Rail Station
750,友谊路轻轨站, Friendship Road Light Rail Station,114.277981,30.580735,轻轨站,325,Light Rail Station
517,古田一路轻轨站, Gutian 1st Road Light Rail Station,114.182714,30.604614,轻轨站,474,Light Rail Station
369,三阳路轻轨站, Sanyang Road Light Rail Station,114.30162,30.599099,轻轨站,675,Light Rail Station
726,古田三路轻轨站, Gutian 3rd Road Light Rail Station,114.202666,30.594369,轻轨站,339,Light Rail Station
1153,头道街轻轨站, Toudaojie Light Rail Station,114.31559,30.618525,轻轨站,197,Light Rail Station
1230,新荣轻轨站,Xinrong Light Rail Station,114.343337,30.651991,轻轨站,181,Light Rail Station
613,徐州新村轻轨站, Xuzhou Xincun Light Rail Station,114.325865,30.632543,轻轨站,394,Light Rail Station
764,汉西一路轻轨站, Hanxi 1st Road Light Rail Station,114.219887,30.584963,轻轨站,319,Light Rail Station
444,额头湾轻轨站, Forehead Bay Light Rail Station,114.153841,30.618653,轻轨站,564,Light Rail Station
778,古田四路轻轨站, Gutian 4th Road Light Rail Station,114.211797,30.589155,轻轨站,313,Light Rail Station
295,古田二路轻轨站, Gutian 2nd Road Light Rail Station,114.196208,30.597942,轻轨站,845,Light Rail Station
1039,利济北路轻轨站, Liji North Road Light Rail Station,114.269123,30.577023,轻轨站,227,Light Rail Station
808,二七路轻轨站, Erqi Road Light Rail Station,114.320849,30.625812,轻轨站,299,Light Rail Station
680,十五中, fifteen middle school,114.325447,30.537462,中学,356,Middle school
958,湖北省武昌实验中学, Hubei Wuchang Experimental Middle School,114.30328,30.55159,中学,249,Middle school
1023,湖北省水果湖高级中学, Hubei Province Fruit Lake Senior High School,114.34676,30.54952,中学,233,Middle school
1467,武汉市黄陂区实验中学, Wuhan Huangpi District Experimental Middle School,114.38054,30.87131,中学,142,Middle school
1339,武汉三中(拦江路), Wuhan No. 3 Middle School ( Block River Road ),114.27143,30.54479,中学,161,Middle school
1591,武汉市江夏实验高中, Wuhan Jiangxia Experimental High School,114.32305,30.34157,中学,127,Middle school
795,关山中学, Guanshan Middle School,114.408875,30.496799,中学,306,Middle school
1047,黄陂区第二中学, Huangpi District No. 2 Middle School,114.23992,31.01807,中学,223,Middle school
1267,武汉市钢城第四中学, Wuhan Gangcheng No. 4 Middle School,114.39434,30.63435,中学,173,Middle school
1500,武钢三中, Wuhan Iron and Steel Third Middle School,114.39047,30.63912,中学,137,Middle school
1588,汉阳区第一中学, Hanyang District No. 1 Middle School,114.0163,30.57711,中学,128,Middle school
1184,武汉市育才高中, Wuhan Yucai High School,114.29966,30.60365,中学,190,Middle school
1519,武汉外国语学校, Wuhan Foreign Language School,114.269092,30.583928,中学,135,Middle school
1639,武汉十六中, Wuhan No. 16 Middle School,114.3007,30.59396,中学,123,Middle school
1121,武汉市第二十六中学, Wuhan No. 26 Middle School,114.24537,30.57613,中学,207,Middle school
1566,武汉市第二十三中学(汉阳区人民政府西), Wuhan No. 23 Middle School ( Hanyang District People's Government West ),114.217371,30.554731,中学,130,Middle school
1084,武汉枫叶国际学校, Wuhan Maple Leaf International School,114.38597,30.44853,中学,214,Middle school
834,武汉市第四十九中学, Wuhan No. 49 Middle School,114.40606,30.64674,中学,289,Middle school
1656,新洲区第一中学, Xinzhou District No. 1 Middle School,114.81509,30.84664,中学,122,Middle school
1533,新洲二中, Xinzhou No. 2 Middle School,114.599774,30.830478,中学,134,Middle school
963,湖北黄陂一中,Hubei Huangpi No.1 Middle School,114.36098,30.90297,中学,248,Middle school
776,武汉市第一中学(常青一路), Wuhan No. 1 Middle School ( Evergreen all the way ),114.25857,30.62374,中学,313,Middle school
1242,武汉市第六中学(球场路), Wuhan No. 6 Middle School ( Stadium Road ),114.29183,30.60276,中学,178,Middle school
614,武汉市第四中学, Wuhan No. 4 Middle School,114.217939,30.587096,中学,394,Middle school
1019,武汉市第二中学, Wuhan No. 2 Middle School,114.30835,30.60601,中学,234,Middle school
782,武汉市第十七中学,Wuhan No. 17 Middle School,114.22801,30.58053,中学,310,Middle school
1553,武汉市钢都中学, Wuhan Gangdu Middle School,114.3672,30.61199,中学,131,Middle school
667,武汉中学, Wuhan Middle School,114.31275,30.54776,中学,364,Middle school
865,武汉市东湖中学, Wuhan Donghu Middle School,114.36828,30.57482,中学,279,Middle school
1140,武汉市第十一中学,Wuhan No. 11 Middle School,114.260535,30.574556,中学,202,Middle school
375,黄鹤楼(西门), Yellow Crane Tower ( Simon ),114.30061,30.54515,国家级景点,673,National attraction
7,黄鹤楼, Yellow Crane Tower,114.3025,30.54462,国家级景点,12364,National attraction
816,湖北日报传媒集团, Hubei Daily Media Group,114.36608,30.56727,报社,297,Newspaper
436,娘惹裙厨(光谷店), Nyonya Skirt Chef ( Optics Valley Store ),114.402193,30.505463,其他亚洲菜,576,Other Asian cuisine
675,娘惹裙厨 新佳丽店, Nyonya Skirt Kitchen New Beauty Store,114.29214,30.57836,其他亚洲菜,359,Other Asian cuisine
217,武汉东湖樱花园, Wuhan East Lake Cherry Blossom Garden,114.40933,30.54495,公园户外,1137,Park Outdoor
22,武汉长江大桥, Wuhan Yangtze River Bridge,114.28845,30.54964,公园户外,5726,Park Outdoor
1479,圣宝龙大酒店, San Baolong Hotel,114.35598,30.51059,公园户外,141,Park Outdoor
888,武汉市公安局交通管理局车辆管理所, Wuhan Public Security Bureau Traffic Administration Vehicle Management Office,114.32401,30.57161,公园户外,271,Park Outdoor
966,柴泊湖旅游风景区, Chaibo Lake Tourist Scenic Spot,114.57291,30.67623,公园户外,248,Park Outdoor
1419,九真山森林公园, Jiuzhen Mountain Forest Park,113.9256,30.47258,公园户外,150,Park Outdoor
1064,武汉诺威香卡酒店, Wuhan Novi Shankar Hotel,114.4018,30.45719,公园户外,219,Park Outdoor
1440,武昌江滩月亮湾景观区(2门), Wuchang River Beach Moon Bay Scenic Area (2 Door ),114.31787,30.57985,公园户外,147,Park Outdoor
1112,木兰古门风景区, Mulan Ancient Gate Scenic Area,114.34835,31.26601,公园户外,208,Park Outdoor
982,九龙大酒店, Kowloon Hotel,114.30229,30.52035,公园户外,243,Park Outdoor
493,武汉沌口长江大酒店, Wuhan Zhuankou Yangtze River Hotel,114.15794,30.48663,公园户外,495,Park Outdoor
1221,南国南湖城市广场, Nanguo Nanhu City Plaza,114.324825,30.504732,公园户外,183,Park Outdoor
1550,武汉市机动车驾驶员协会, Wuhan Motor Vehicle Drivers Association,114.2071,30.56292,公园户外,132,Park Outdoor
483,江汉二桥, Jianghan Second Bridge,114.21883,30.57573,公园户外,510,Park Outdoor
57,西园商业步行街, West Park Commercial Pedestrian Street,114.269819,30.585764,公园户外,3066,Park Outdoor
515,武汉长江大桥武昌桥头, Wuchang Bridge Head of Wuhan Yangtze River Bridge,114.302444,30.546887,公园户外,475,Park Outdoor
391,水果湖步行街, Fruit Lake Pedestrian Street,114.344033,30.547227,公园户外,637,Park Outdoor
129,藏龙岛, Hidden Dragon Island,114.416824,30.418086,公园户外,1744,Park Outdoor
1169,知音.九真景区, Bosom friend . Jiuzhen Scenic Area,113.95486,30.47462,公园户外,193,Park Outdoor
1337,军山长江大桥, Junshan Yangtze River Bridge,114.14623,30.3714,公园户外,162,Park Outdoor
581,扁担山墓园, Piandanshan Cemetery,114.18582,30.56506,公园户外,423,Park Outdoor
1273,磨山景区(武汉东湖樱花园西), Moshan Scenic Area ( Wuhan East Lake Cherry Blossom Garden West ),114.40632,30.54573,公园户外,173,Park Outdoor
379,武汉五月花大酒店, Wuhan Mayflower Hotel,114.32752,30.53652,公园户外,664,Park Outdoor
406,武汉洪山宾馆, Wuhan Hongshan Hotel,114.33856,30.54708,公园户外,621,Park Outdoor
1598,好百年饭店, Centennial Hotel,114.29724,30.57697,公园户外,127,Park Outdoor
383,武汉天兴洲长江大桥, Wuhan Tianxingzhou Yangtze River Bridge,114.38716,30.68347,公园户外,658,Park Outdoor
1299,白云洞, Baiyun Cave,114.28854,30.34964,公园户外,168,Park Outdoor
1567,薇拉摄影AVIVA, Vera Photography AVIVA,114.267817,30.558034,照相馆,130,Photography hall
1168,武汉市公安局, Wuhan Public Security Bureau,114.25823,30.61432,警察局,193,Police station
957,汉口江滩轮渡粤汉旅游码头, Hankou Jiangtan Ferry Yuehan Tourist Wharf,114.30478,30.59022,港口码头,250,Port terminal
1114,武汉轮渡集家嘴码头, Wuhan Ferry Jijiazui Wharf,114.28475,30.5666,港口码头,208,Port terminal
29,汉口江滩, Hankou River Beach,114.30052,30.58134,港口码头,5101,Port terminal
160,中华路轮渡码头, Zhonghua Road Ferry Terminal,114.29483,30.55047,港口码头,1468,Port terminal
1000,武汉轮渡武汉关码头, Wuhan Ferry Wuhan Guan Wharf,114.29773,30.575,港口码头,239,Port terminal
408,木兰山风景区, Mulan Mountain Scenic Area,114.38217,31.1089,省级景点,619,Provincial attraction
1531,湖北电影制片厂, Hubei Film Studio,114.26705,30.58716,出版社,134,Publisher
365,东方马城国际赛马场, Oriental Horse City International Racecourse,114.2262,30.63131,赛马场,676,Racecaper
868,南国首义汇, Nanguo Shouyihui,114.304726,30.534355,房地产类公司,279,Real estate company
1642,武汉万达公馆, Wuhan Wanda Mansion,114.309781,30.567374,房地产类公司,123,Real estate company
1201,居然之家(汉口店), actually home ( Hankou Store ),114.25209,30.608761,房地产类公司,187,Real estate company
20,凯德广场武胜, CapitaMall Wusheng,114.267669,30.568938,房地产类公司,5990,Real estate company
447,民航小区, Civil Aviation Community,114.23893,30.6282,住宅区,561,Residential area
1316,天勤花园, Tianqin Garden,114.19097,30.60838,住宅区,165,Residential area
842,武汉高尔夫城市花园, Wuhan Golf City Garden,114.21353,30.63877,住宅区,286,Residential area
992,湖北大学一期学生公寓, Hubei University Phase I Student Housing,114.33745,30.57913,住宅区,240,Residential area
1219,日月山水(巨龙大道), Sun and Moon Landscape ( Dragon Avenue ),114.30133,30.69625,住宅区,183,Residential area
1227,统建大江园南苑, Tongjian Dajiang Garden Nanyuan,114.29322,30.61691,住宅区,181,Residential area
452,万科城, Vanke City,114.237632,30.626845,住宅区,554,Residential area
1223,丰竹园, Fengzhuyuan,114.23767,30.61017,住宅区,182,Residential area
1021,常青花园四小区(南门), Evergreen Garden No. 4 Community ( South Gate ),114.23773,30.64577,住宅区,233,Residential area
1323,凤凰城, Phoenix city,114.30918,30.55716,住宅区,164,Residential area
410,水岸星城, Waterfront Star City,114.34337,30.57578,住宅区,611,Residential area
1195,绿汀雅境, Green and elegant,114.37216,30.50137,住宅区,188,Residential area
814,佳源花都小区,Jiayuan Huadu Community,114.44611,30.477218,住宅区,297,Residential area
1370,佳园小区(解放大道), Jiayuan Community ( Liberation Avenue ),114.33417,30.65064,住宅区,157,Residential area
1032,人信·奥林花园, people believe · Olin Garden,114.18183,30.50963,住宅区,230,Residential area
1198,美林青城, Merrill Lynch Qingcheng,114.3537,30.59353,住宅区,187,Residential area
1218,中南财经政法大学临湖公寓, Lakeside Apartment of Zhongnan University of Economics and Law,114.39064,30.4722,住宅区,183,Residential area
1424,水木清华, Shuimu Tsinghua,114.15426,30.50685,住宅区,149,Residential area
1027,香港映象, Hong Kong image,114.21541,30.58791,住宅区,231,Residential area
269,泰塑学生公寓, Taisu Student Apartment,114.43273,30.458,住宅区,923,Residential area
427,保利花园, Poly Garden,114.41265,30.49928,住宅区,589,Residential area
1204,中大长江紫都, CUHK Yangtze River Purple Capital,114.2895,30.51477,住宅区,186,Residential area
1326,云鹤小区, Yunhe Community,114.22111,30.60246,住宅区,163,Residential area
583,融侨锦城, Rongqiao Jincheng,114.20294,30.59378,住宅区,420,Residential area
1425,临江港湾, Linjiang Harbor,114.41232,30.65163,住宅区,149,Residential area
248,铜锣湾广场, Causeway Bay Plaza,114.26661,30.55029,住宅区,983,Residential area
1234,新地·盛世东方, new land · Prosperity East,114.300881,30.638019,住宅区,180,Residential area
1451,沈家湾花园小区, Shenjiawan Garden Community,114.33032,30.51855,住宅区,145,Residential area
953,佛祖岭社区, Fozuling Community,114.44568,30.43815,住宅区,251,Residential area
1583,富丽雅花园, Fuliya Garden,114.15293,30.62258,住宅区,128,Residential area
474,武汉科技大学人和大学生公寓,Wuhan University of Science and Technology and Student Apartments,114.36517,30.6228,住宅区,524,Residential area
1294,金都汉宫, Jinduhan Palace,114.30344,30.55786,住宅区,168,Residential area
1293,幸福人家, happy family,114.29656,30.64461,住宅区,168,Residential area
1470,江南家园小区, Jiangnan Home Community,114.395831,30.480663,住宅区,141,Residential area
1268,都市兰亭, Urban Lanting,114.26818,30.55066,住宅区,173,Residential area
1499,狮城名居, lion city residence,114.350341,30.509035,住宅区,137,Residential area
1269,潮海公寓, Chaohai Apartment,114.15622,30.52246,住宅区,173,Residential area
216,保利心语, Poly heart language,114.325713,30.472708,住宅区,1148,Residential area
1473,中南财经政法大学弘博环湖学生公寓, Zhongnan University of Economics and Law Hongbo Huanhu Student Apartment,114.38191,30.4744,住宅区,141,Residential area
1498,关南社区, Guannan Community,114.43262,30.47794,住宅区,137,Residential area
1292,锦绣江南, Splendid Jiangnan,114.358942,30.563302,住宅区,168,Residential area
1497,东亭小区, Dongting Community,114.35797,30.56727,住宅区,137,Residential area
1274,尚隆地球村, Shanglong Global Village,114.31436,30.55781,住宅区,172,Residential area
1287,华安里社区, Huaanli Community,114.2432,30.61905,住宅区,169,Residential area
1493,天泽一方, Amazawa side,114.21758,30.60595,住宅区,138,Residential area
1285,绿景苑, Green View Court,114.37303,30.60763,住宅区,169,Residential area
1284,东立国际(四号门), Dongli International ( door number four ),114.31047,30.62423,住宅区,169,Residential area
895,金桥·港湾花园水木廷苑, Golden Bridge · Harbour Garden Shuimu Tingyuan,114.26171,30.52971,住宅区,269,Residential area
987,武汉大学三环学生公寓, Wuhan University Third Ring Student Apartment,114.37429,30.52896,住宅区,241,Residential area
525,南国明珠, Pearl of the South,114.20059,30.54111,住宅区,470,Residential area
1466,锦湖花园, Kumho Garden,114.34467,30.66473,住宅区,142,Residential area
984,新地·东方明珠, new land · Pearl of the Orient,114.29843,30.63783,住宅区,242,Residential area
863,复地东湖国际, Forte East Lake International,114.34891,30.56306,住宅区,279,Residential area
453,人信·汉商银座, people believe · Hanshang Ginza,114.26781,30.54927,住宅区,554,Residential area
605,观湖苑, Guanhuyuan,114.09002,30.46218,住宅区,402,Residential area
1513,纳帕溪谷, Napa Valley,114.41669,30.41803,住宅区,136,Residential area
1237,泰兴里, Taehung-ri,114.30067,30.58935,住宅区,179,Residential area
1304,卡迪亚公馆, Cadia Mansion,114.383216,30.479173,住宅区,167,Residential area
464,金色华府, Golden Washington,114.28607,30.60939,住宅区,540,Residential area
1452,凤凰花园, Phoenix Garden,114.42339,30.44083,住宅区,145,Residential area
1240,凯旋名邸, Triumph Mansion,114.31898,30.52368,住宅区,178,Residential area
973,学雅芳邻, Learn about Avonne,114.36559,30.5047,住宅区,245,Residential area
876,中建康城, China Construction Cannes City,114.40868,30.47179,住宅区,276,Residential area
972,香缇美景, Shanti beauty,114.23056,30.61816,住宅区,245,Residential area
1241,玫瑰苑, rose garden,114.20304,30.56672,住宅区,178,Residential area
538,东湖新村,East Lake New Village,114.369713,30.529554,住宅区,460,Residential area
1454,中央花园, central garden,114.31684,30.51101,住宅区,145,Residential area
1465,统建·东方雅园, unified construction · Oriental Graceland,114.397335,30.612119,住宅区,142,Residential area
533,海虹景(三眼桥北路), Haihongjing ( Sanyanqiao North Road ),114.27838,30.61276,住宅区,465,Residential area
529,华润中央公园, China Resources Central Park,114.24243,30.5654,住宅区,467,Residential area
892,华中科技大学喻园小区, Huazhong University of Science and Technology Yuyuan Community,114.42553,30.515593,住宅区,270,Residential area
1188,保利海上五月花, Poly sea Mayflower,114.376171,30.408182,住宅区,189,Residential area
1119,金地太阳城, Gemdale Sun City,114.41162,30.49059,住宅区,207,Residential area
612,爱家国际华城, Love Home International Huacheng,114.3638,30.59127,住宅区,394,Residential area
1144,烽火村, beacon fire village,114.29862,30.51115,住宅区,200,Residential area
319,汉口花园, Hankou Garden,114.27001,30.63432,住宅区,783,Residential area
368,东立国际, Dongli International,114.314,30.62601,住宅区,675,Residential area
1079,名都花园(湖北省旅游学校西南), Mingdu Garden ( Southwest of Hubei Provincial Tourism School ),114.3699,30.5038,住宅区,215,Residential area
1150,银海雅苑, Silver Sea Court,114.36445,30.52672,住宅区,198,Residential area
1551,同馨花园, Tongxin Garden,114.25459,30.57649,住宅区,131,Residential area
752,复兴新村小区, Fuxing Xincun Community,114.24552,30.60416,住宅区,324,Residential area
1352,水陆小区, Water and land area,114.29737,30.5308,住宅区,159,Residential area
1183,江南春城, Jiangnan Spring City,114.3804,30.6285,住宅区,190,Residential area
1651,都市经典, urban classic,114.35523,30.58033,住宅区,122,Residential area
1552,华中师范大学华大家园, Huayuan Home of Central China Normal University,114.33872,30.48468,住宅区,131,Residential area
652,卡梅尔小镇, carmel town,114.439511,30.428886,住宅区,371,Residential area
651,大华南湖公园世家, Dahua South Lake Park Family,114.340113,30.493765,住宅区,371,Residential area
1351,沿海丽水佳园, Coastal Lishui Garden,114.22654,30.64994,住宅区,159,Residential area
308,领秀城, Leading Show City,114.37456,30.5055,住宅区,807,Residential area
1157,东湖天下, East Lake World,114.37243,30.57599,住宅区,196,Residential area
1395,常青公寓, Evergreen Apartments,114.24586,30.64024,住宅区,153,Residential area
1384,碧海花园, Bihai Garden,114.19732,30.64866,住宅区,155,Residential area
1083,东方花城, Oriental Flower City,114.20086,30.59012,住宅区,214,Residential area
1381,华清园, Huaqing Garden,114.3021,30.5968,住宅区,155,Residential area
1628,将军花园, General Garden,114.25007,30.65002,住宅区,124,Residential area
343,沿海赛洛城, coastal silo city,114.15935,30.63504,住宅区,723,Residential area
1586,湖北省电力岳家嘴小区, Hubei Electric Power Yuejiazui Community,114.36642,30.58135,住宅区,128,Residential area
702,万松园小区(雪松路), Wansongyuan Community ( Cedar Road ),114.26771,30.592,住宅区,349,Residential area
700,湖北大学忠诚学生公寓, Hubei University Loyalty Student Apartment,114.3274,30.57183,住宅区,349,Residential area
1543,卧龙剑桥春天, Wolong Cambridge Spring,114.41704,30.50656,住宅区,132,Residential area
1123,金地·格林春岸, Gemdale · Green Spring Bank,114.194362,30.628539,住宅区,206,Residential area
1541,嘉禾园, Golden Harvest Garden,114.15364,30.62337,住宅区,132,Residential area
720,现代花园, modern garden,114.40716,30.61976,住宅区,341,Residential area
1396,怡和苑, Yihe Court,114.31126,30.64239,住宅区,153,Residential area
1640,华锦花园, Huajin Garden,114.31763,30.50407,住宅区,123,Residential area
1094,百瑞景中央生活区, Bairui King Central Living Area,114.33946,30.52875,住宅区,212,Residential area
141,南湖花园, South Lake Garden,114.316267,30.510898,住宅区,1619,Residential area
1091,武汉大学茶港小区, Wuhan University Chagang Community,114.354305,30.539242,住宅区,213,Residential area
684,金地·国际花园, Gemdale · International Garden,114.3117,30.56222,住宅区,355,Residential area
1090,万科, Vanke,114.29285,30.59544,住宅区,213,Residential area
1540,芳卉园, Fanghui Garden,114.26216,30.52807,住宅区,132,Residential area
123,武汉理工大学升升学生公寓, Shengsheng Student Apartment of Wuhan University of Technology,114.343987,30.507397,住宅区,1853,Residential area
679,顶琇·晶城, Dingxiu · Crystal City,114.27156,30.61931,住宅区,356,Residential area
361,金地·格林小城(书城路), Gemdale · Green Town ( Shucheng Road ),114.33627,30.49905,住宅区,683,Residential area
646,统建·同安家园, unified construction · Tongan Home,114.30081,30.64924,住宅区,374,Residential area
1650,世纪彩城, Century Color City,114.35675,30.57218,住宅区,122,Residential area
635,巴黎豪庭, Paris Mansion,114.427232,30.505808,住宅区,381,Residential area
786,江欣苑, Jiang Xin Court,114.2471,30.53056,住宅区,309,Residential area
1530,武汉奥林匹克花园, Wuhan Olympic Garden,114.20958,30.67289,住宅区,134,Residential area
1555,鹦鹉花园, Parrot Garden,114.27447,30.54303,住宅区,131,Residential area
293,万科金色家园,Vanke Golden Home,114.2805,30.58238,住宅区,850,Residential area
1403,世茂锦绣长江二期, Shimao Splendid Yangtze River Phase II,114.27279,30.53969,住宅区,152,Residential area
1348,武昌城市公园, Wuchang City Park,114.3206,30.5257,住宅区,160,Residential area
790,福星惠誉水岸国际, Fuxing Fitch Waterfront International,114.323945,30.57161,住宅区,308,Residential area
387,湖北大学二期学生公寓, Hubei University Phase II Student Housing,114.33222,30.57439,住宅区,647,Residential area
1055,东方夏威夷国际花园, Oriental Hawaii International Garden,114.13784,30.51647,住宅区,221,Residential area
386,融侨华府, Rongqiao Huafu,114.31536,30.56882,住宅区,648,Residential area
1048,万景国际, Wanjing International,114.26209,30.60344,住宅区,223,Residential area
1061,江山如画, Picturesque,114.26457,30.56444,住宅区,219,Residential area
400,武汉·恒大绿洲, Wuhan · Evergrande Oasis,114.126534,30.550497,住宅区,627,Residential area
1176,美加湖滨新城, Lakeside New City,114.37248,30.39077,住宅区,192,Residential area
1529,泰然南湖玫瑰湾, Tairan South Lake Rose Bay,114.343433,30.487581,住宅区,134,Residential area
1160,武钢钢花新村121小区, WISCO Ganghua New Village 121 community,114.37509,30.6168,住宅区,195,Residential area
1415,天梨豪园, Tianli Mansion,114.24951,30.61346,住宅区,150,Residential area
796,青扬十街, Qingyang 10th Street,114.39962,30.63853,住宅区,305,Residential area
1405,滨湖社区, Lakeside Community,114.1458,30.48665,住宅区,152,Residential area
1131,四季歌KTV·中餐会所, Four Seasons Song KTV· Chinese restaurant,114.26364,30.59599,中餐厅,205,Restaurant
1053,骏骏牛肉粉店, Junjun Beef Noodle Shop,114.25274,30.56944,中餐厅,222,Restaurant
914,湖北海陆空万松园总店, Hubei Hailukong Wansongyuan Main Store,114.26647,30.5928,中餐厅,264,Restaurant
894,刘胖子酒店(民生路店), Fatty Liu Hotel ( Minsheng Road Store ),114.29472,30.57368,中餐厅,270,Restaurant
1359,周黑鸭(武汉火车站店), Zhou Hei Ya ( Wuhan Railway Station Store ),114.423392,30.607083,中餐厅,159,Restaurant
1376,桥口炸炸, bridge mouth fried,114.261117,30.572374,中餐厅,156,Restaurant
276,探路者国际青年旅馆, Pathfinder International Youth Hostel,114.31746,30.54983,中餐厅,904,Restaurant
643,武汉大学 田园小观园, Wuhan University Pastoral Small View Garden,114.357761,30.54217,中餐厅,376,Restaurant
1659,毛毛烤虾王(杨园街派出所西南), Mao Mao Grilled King Shrimp ( Southwest of Yangyuan Street Police Station ),114.34784,30.60113,中餐厅,122,Restaurant
991,小城故事 芦沟桥路店 Charmant, Small Town Story Lugouqiao Road Store Charmant,114.310019,30.607682,中餐厅,241,Restaurant
986,金汉斯烧烤, Ginghams BBQ,114.289871,30.582308,中餐厅,242,Restaurant
875,海底捞平价小海鲜, Haidilao cheap small seafood,114.392099,30.509754,海鲜酒楼,277,Seafood restaurant
1320,永信海鲜(青山店), Yongxin Seafood ( Qingshan Store ),114.387672,30.622556,海鲜酒楼,165,Seafood restaurant
1402,天天渔港, Tiantian Fishing Port,114.3165,30.60922,海鲜酒楼,153,Seafood restaurant
1325,翔翔海鲜, Xiang Xiang Seafood,114.318568,30.629282,海鲜酒楼,164,Seafood restaurant
603,快乐海鲜城(虎泉街店), Happy Seafood City ( Huquan Street Store ),114.37706,30.507669,海鲜酒楼,403,Seafood restaurant
1385,双湖桥,Shuanghu Bridge,114.354397,30.550191,海滨浴场,155,Seaside bath
388,江汉桥(汉江一桥), Jianghan Bridge (1st Han River Bridge ),114.26752,30.56199,海滨浴场,642,Seaside bath
167,汤逊湖, Lake Thompson,114.358572,30.428853,海滨浴场,1436,Seaside bath
843,金色池塘自助餐 青少年宫店,Golden Pond Buffet Youth Palace Store,114.28708,30.58887,自助,285,Self -service
146,金马门国际美食百汇, Kinmamen International Food Parkway,114.36088,30.5247,自助,1548,Self -service
1336,光谷之窗旋转餐厅, Optics Valley Window Revolving Restaurant,114.39788,30.50625,自助,162,Self -service
404,金鲨国际海鲜美食百汇, Golden Shark International Seafood Parkway,114.2659,30.59715,自助,624,Self -service
1548,菲特堡 光谷国际广场店, Feiterburg Optics Valley International Plaza Store,114.39738,30.50748,自助,132,Self -service
499,武汉天际万豪大酒店, Wuhan Skyline Marriott Hotel,114.387232,30.61759,自助,489,Self -service
723,金汉斯 光谷店, Jinhans Optics Valley Store,114.40321,30.50598,自助,341,Self -service
1092,翡尼诗西餐厅（海鲜自助） 武珞路, Feini Shi Western Restaurant (Seafood Buffet) Wuluo Road,114.350145,30.527685,自助,213,Self -service
1380,巴犀烧烤 亚贸店, Baxi Barbecue Asian Trade Store,114.34427,30.52902,自助,156,Self -service
415,四海一家, family of four seas,114.2726,30.58015,自助,603,Self -service
1574,巴犀烧烤 世贸广场店, Baxi BBQ World Trade Plaza,114.26869,30.58047,自助,130,Self -service
883,万达广场, Wanda square,114.262405,30.6159,购物服务,275,Shopping service
83,楚河汉街, Chu River Han Street,114.342871,30.554574,购物服务,2351,Shopping service
1301,重庆酒家 关南小区店, Chongqing Restaurant Guannan Community Store,114.41149,30.46964,四川菜,168,Sichuan cuisine
711,金色雾都, golden fog,114.28135,30.59825,四川菜,345,Sichuan cuisine
1464,三川麻辣风(新佳丽广场店), Sanchuan Spicy Style ( New Belle Plaza Store ),114.291489,30.57888,四川菜,143,Sichuan cuisine
740,友谊国宾酒店, Friendship Ambassador Hotel,114.316662,30.557517,四川菜,333,Sichuan cuisine
627,巴适(汉街店), Bashi ( Han Street Store ),114.333846,30.560625,四川菜,386,Sichuan cuisine
423,渝家小馆 珞珈山街店, Yujia Xiaoguan Luojiashan Street Branch,114.299313,30.586254,四川菜,595,Sichuan cuisine
315,俏江南, South Beauty,114.270645,30.581069,四川菜,787,Sichuan cuisine
1007,巴适特色美食茗源坊(武汉天地店), Pashi Specialty Cuisine Ming Yuan Fang ( Wuhan Tiandi Store ),114.310654,30.607109,四川菜,237,Sichuan cuisine
1170,川霸味道 花园道店,Chuanba Taste Garden Road Store,114.26376,30.59554,四川菜,193,Sichuan cuisine
1266,三川麻辣风 光谷店, Sanchuan Spicy Scenery Valley Store,114.401791,30.505426,四川菜,174,Sichuan cuisine
878,老房子春江花月, Old house Chunjiang Huayue,114.360294,30.574473,四川菜,276,Sichuan cuisine
1526,王子厨房 武汉天地店, Prince Kitchen Wuhan Tiandi Store,114.312079,30.606881,四川菜,135,Sichuan cuisine
1561,川霸味道(光谷天地店), Chuanba taste ( Optics Valley Store ),114.412,30.4763,四川菜,131,Sichuan cuisine
71,武汉广场, Wuhan Plaza,114.26957,30.58063,体育用品店,2604,Sporting shop
717,英东游泳跳水馆, Yingdong Swimming and Diving Hall,114.333542,30.548441,运动场所,342,Sports place
1654,武汉市体育馆, Wuhan Gymnasium,114.26149,30.578147,运动场所,122,Sports place
63,华中科技大学光谷体育馆, Huazhong University of Science and Technology Optics Valley Gymnasium,114.418098,30.507542,运动场所,2841,Sports place
174,新华路体育场, Xinhua Road Stadium,114.274582,30.586611,运动场所,1396,Sports place
1097,汉阳火车站, Hanyang Railway Station,114.256081,30.55213,火车站,212,TRAIN STATION
942,武昌火车站1号站台, Wuchang Railway Station 1 platform,114.316861,30.529092,火车站,255,TRAIN STATION
967,武昌南站, Wuchang South Railway Station,114.30419,30.47486,火车站,248,TRAIN STATION
0,武昌火车站, Wuchang Railway Station,114.31566,30.52996,火车站,33479,TRAIN STATION
2,汉口火车站, Hankou Railway Station,114.25914,30.61723,火车站,19969,TRAIN STATION
12,武汉火车站候车大厅, Wuhan Railway Station Waiting Hall,114.424263,30.607597,火车站,8003,TRAIN STATION
199,武昌火车站VIP候车厅, Wuchang Railway Station VIP waiting hall,114.317828,30.528506,火车站,1268,TRAIN STATION
52,武昌火车站动车组候车厅, Wuchang Railway Station EMU Waiting Hall,114.317913,30.528636,火车站,3375,TRAIN STATION
626,汉口火车站贵宾俱乐部, Hankou Railway Station VIP Club,114.25657,30.617635,火车站,386,TRAIN STATION
1254,一茶一坐（武汉大洋店）, One Tea and One Sitting (Wuhan Dayang Store),114.28994,30.577489,台湾菜,176,Taiwanese dish
1382,武汉电视台, Wuhan TV,114.27505,30.5973,电视台,155,Television station
801,长春观, Changchun View,114.32059,30.53983,寺庙道观,302,Temple
33,归元禅寺,Guiyuan Temple,114.26013,30.5457,寺庙道观,4661,Temple
294,古德寺, Good Temple,114.308189,30.618099,寺庙道观,850,Temple
418,新洲人民广场, Xinzhou People's Square,114.79711,30.82938,城市广场,600,Town square
268,首义园中心文化广场, Shouyi Garden Center Cultural Plaza,114.30287,30.53784,城市广场,929,Town square
762,西北湖绿化广场, Northwest Lake Green Plaza,114.26913,30.59549,城市广场,321,Town square
977,交通部海事局武汉培训中心," Wuhan Training Center, Maritime Safety Administration, Ministry of Communications",114.33682,30.75098,培训机构,244,Training institution
1571,武汉新港国际大酒店,Wuhan Xingang International Hotel,114.55678,30.703801,出行住宿,130,Travel accommodation
1263,武汉胜天农庄, Wuhan Shengtian Farm,114.443093,31.044804,出行住宿,174,Travel accommodation
1414,光谷, Optics Valley,114.396408,30.50374,出行住宿,151,Travel accommodation
689,铁桥建国大酒店, Tieqiao Jianguo Hotel,114.224848,30.558391,出行住宿,354,Travel accommodation
1118,武汉民政职业学院, Wuhan Civil Affairs Vocational College,114.37869,30.50669,高校中心点,207,University center point
78,汉口学院, Hankou University,114.32067,30.416,高校中心点,2472,University center point
159,武汉大学珞珈学院, Luojia College of Wuhan University,114.31089,30.442341,高校中心点,1470,University center point
77,湖北工业大学商贸学院, Hubei University of Technology Business School,114.37884,30.50284,高校中心点,2491,University center point
162,湖北美术学院, Hubei Academy of Fine Arts,114.317087,30.546841,高校中心点,1454,University center point
79,湖北中医药大学, Hubei University of Traditional Chinese Medicine,114.268058,30.451958,高校中心点,2378,University center point
297,武汉铁路职业技术学院, Wuhan Railway Vocational and Technical College,114.40878,30.42841,高校中心点,842,University center point
468,湖北交通职业技术学院, Hubei Transportation Vocational and Technical College,114.372654,30.507813,高校中心点,533,University center point
448,武汉警官职业学院, Wuhan Police Officer Vocational College,114.12673,30.62512,高校中心点,560,University center point
80,武昌理工学院（原武汉科技大学中南分校）, Wuchang Institute of Technology (formerly Central South Branch of Wuhan University of Science and Technology),114.371297,30.416198,高校中心点,2370,University center point
152,武汉商贸职业学院, Wuhan Vocational College of Commerce and Trade,114.45973,30.43583,高校中心点,1521,University center point
87,武汉工程大学流芳校区, Wuhan University of Technology Liufang Campus,114.43378,30.46223,高校中心点,2264,University center point
307,武汉城市职业学院, Wuhan City Vocational College,114.324814,30.476186,高校中心点,809,University center point
109,华中科技大学同济医学院, Tongji Medical College of Huazhong University of Science and Technology,114.260521,30.58149,高校中心点,1971,University center point
359,华中师范大学汉口分校, Central China Normal University Hankou Branch,114.319618,30.417494,高校中心点,687,University center point
362,武汉工业职业技术学院, Wuhan Industrial Vocational and Technical College,114.309525,30.443054,高校中心点,682,University center point
104,中南财经政法大学武汉学院, Wuhan College of Zhongnan University of Economics and Law,114.38007,30.5011,高校中心点,2017,University center point
102,武汉纺织大学(阳光校区), Wuhan Textile University ( Sunshine Campus ),114.344416,30.374449,高校中心点,2057,University center point
364,海军工程大学, Naval Engineering University,114.242706,30.577945,高校中心点,677,University center point
1017,武汉工程大学邮电与信息工程学院," School of Posts, Telecommunications and Information Engineering, Wuhan University of Technology",114.39143,30.51523,高校中心点,234,University center point
421,中国地质大学研究生院, Graduate School of China University of Geosciences,114.40167,30.51815,高校中心点,598,University center point
101,武汉职业技术学院, Wuhan Institute of Technology,114.416253,30.484197,高校中心点,2070,University center point
138,华中农业大学楚天学院, Huazhong Agricultural University Chutian College,114.409738,30.400856,高校中心点,1648,University center point
399,军事经济学院, Military Economics School,114.188577,30.584115,高校中心点,627,University center point
92,华中科技大学武昌分校, Huazhong University of Science and Technology Wuchang Branch,114.31067,30.48853,高校中心点,2205,University center point
91,武汉纺织大学, Wuhan Textile University,114.399043,30.485398,高校中心点,2211,University center point
823,武汉电力职业技术学院, Wuhan Electric Power Vocational and Technical College,114.363226,30.523775,高校中心点,293,University center point
1082,湖北财税职业学院, Hubei Finance and Taxation Vocational College,114.29946,30.51502,高校中心点,214,University center point
82,武汉理工大学华夏学院," Huaxia College, Wuhan University of Technology",114.41183,30.46679,高校中心点,2353,University center point
94,华中科技大学文华学院, Huazhong University of Science and Technology Wenhua College,114.43634,30.49684,高校中心点,2146,University center point
66,武汉科技大学城市学院, Wuhan University of Science and Technology City College,114.428466,30.587897,高校中心点,2711,University center point
86,武汉长江工商学院, Wuhan Changjiang University of Technology and Business,114.27356,30.4593,高校中心点,2269,University center point
15,华中科技大学, Huazhong University of Science and Technology,114.413666,30.507904,高校中心点,6546,University center point
34,华中农业大学, Huazhong Agricultural University,114.3571,30.47168,高校中心点,4603,University center point
256,武汉船舶职业技术学院, Wuhan Ship Vocational and Technical College,114.23544,30.565947,高校中心点,955,University center point
35,中南财经政法大学, Zhongnan University of Economics and Law,114.3879,30.47432,高校中心点,4566,University center point
30,武汉体育学院, Wuhan Institute of Physical Education,114.37849,30.51866,高校中心点,4975,University center point
241,江汉大学文理学院, Jianghan University College of Arts and Sciences,114.15648,30.52078,高校中心点,1012,University center point
36,湖北经济学院, Hubei University of Economics,114.42813,30.41703,高校中心点,4367,University center point
38,中国地质大学, China University of Geosciences,114.40097,30.51879,高校中心点,4306,University center point
25,湖北工业大学, Hubei University of Technology,114.31311,30.48068,高校中心点,5354,University center point
42,武汉音乐学院, Wuhan Conservatory of Music,114.29563,30.53892,高校中心点,3949,University center point
16,华中师范大学, Huazhong Normal University,114.36183,30.51769,高校中心点,6227,University center point
226,武汉交通职业学院, Wuhan Transportation Vocational College,114.262689,30.424825,高校中心点,1078,University center point
47,湖北第二师范学院, Hubei Second Normal University,114.4489,30.47814,高校中心点,3463,University center point
907,湖北轻工职业技术学院, Hubei Light Industry Vocational and Technical College,114.34481,30.52257,高校中心点,266,University center point
232,武昌职业学院, Wuchang Vocational College,114.4019,30.37176,高校中心点,1039,University center point
1072,湖北财经高等专科学校, Hubei Higher College of Finance and Economics,114.37282,30.57892,高校中心点,217,University center point
1063,江汉大学实验师范学院, Jianghan University Experimental Teachers College,114.32617,30.481419,高校中心点,219,University center point
50,华中师范大学武汉传媒学院, Central China Normal University Wuhan Media Institute,114.41958,30.43954,高校中心点,3400,University center point
964,武汉外语外事职业学院, Wuhan Vocational College of Foreign Languages and Foreign Affairs,114.42844,30.58804,高校中心点,248,University center point
230,湖北科技职业学院, Hubei Vocational College of Science and Technology,114.40454,30.4733,高校中心点,1040,University center point
600,湖北生物科技职业学院, Hubei Biotechnology Vocational College,114.34443,30.46155,高校中心点,403,University center point
502,武汉长江工商学院, Wuhan Changjiang University of Technology and Business,114.27153,30.458778,高校中心点,487,University center point
60,武汉科技大学黄家湖校区, Wuhan University of Science and Technology Huangjiahu Campus,114.26727,30.44067,高校中心点,2937,University center point
1105,江汉大学现代艺术学院," School of Modern Art, Jianghan University",114.166215,30.518761,高校中心点,209,University center point
496,中国地质大学(航空路), China University of Geosciences ( air road ),114.2592,30.58607,高校中心点,494,University center point
779,湖北经济学院法商学院, Hubei University of Economics School of Law and Business,114.43682,30.41918,高校中心点,312,University center point
246,六渡桥, Liudu Bridge,114.282591,30.576143,未知分类,994,Unknown classification
317,台北路, Taipei Road,114.28041,30.596261,未知分类,784,Unknown classification
325,汉口老街烧烤, Hankou Old Street BBQ,114.271743,30.593107,未知分类,770,Unknown classification
341,钟家村, Zhongjia Village,114.266052,30.549673,未知分类,729,Unknown classification
1086,武汉工程大学流芳校区静思湖," Jingsi Lake, Liufang Campus, Wuhan University of Technology",114.43248,30.45887,未知分类,214,Unknown classification
687,黄陂清凉寨, Huangpi Qingliang Village,114.226781,31.27641,未知分类,355,Unknown classification
1461,DQ(万达菱角湖店), DQ( Wanda water chestnut lake store ),114.267231,30.6099,未知分类,143,Unknown classification
729,武汉首义路, Wuhan Shouyi Road,114.309608,30.535692,未知分类,338,Unknown classification
1108,湖北省公安厅, Hubei Provincial Public Security Department,114.333348,30.517424,未知分类,209,Unknown classification
1391,珞狮南路, Luoshi South Road,114.349045,30.50826,未知分类,154,Unknown classification
1443,华农楚天临湖轩, Huanong Chutian Linhu Xuan,114.409505,30.400421,未知分类,146,Unknown classification
1413,艳阳天黄陂店, Sunny Sky Huangpi Store,114.365123,30.88486,未知分类,151,Unknown classification
285,小东门, Xiaodongmen,114.31852,30.545317,未知分类,872,Unknown classification
1421,武汉天河机场, Wuhan Tianhe Airport,114.271607,30.620161,未知分类,150,Unknown classification
706,金色雅园, Golden Graceland,114.245993,30.624691,未知分类,345,Unknown classification
272,金地中心城, Gemdale Center City,114.393355,30.498134,未知分类,917,Unknown classification
1101,世貿廣場, World Trade Plaza,114.273891,30.57309,未知分类,212,Unknown classification
1431,武胜路凯德广场, Wusheng Road CapitaMall,114.266394,30.574938,未知分类,148,Unknown classification
1400,首玺池典, First Seal Pool Code,114.27552,30.588613,未知分类,153,Unknown classification
1399,肥庄, Feizhuang,114.34495,30.578938,未知分类,153,Unknown classification
716,腰路堤, waist embankment,114.266612,30.541219,未知分类,342,Unknown classification
306,武泰闸, Wutai Gate,114.303633,30.519919,未知分类,810,Unknown classification
701,凯乐花园, Keller Garden,114.324646,30.540115,未知分类,349,Unknown classification
1416,大桥局,Bridge Bureau,114.272456,30.551188,未知分类,150,Unknown classification
261,武汉工程大学流芳校区四教," Four Teachings, Liufang Campus, Wuhan University of Technology",114.431462,30.463442,未知分类,947,Unknown classification
1124,武汉理工新二教学楼, Wuhan University of Technology New Second Teaching Building,114.335692,30.512318,未知分类,206,Unknown classification
1093,四季恋餐厅(汉街店), Four Seasons Love Restaurant ( Han Street Store ),114.343046,30.557919,未知分类,213,Unknown classification
1375,湖北经济学院西区操场, West Playground of Hubei University of Economics,114.4316,30.41585,未知分类,156,Unknown classification
837,居然之家(武昌店), actually home ( Wuchang store ),114.361961,30.57593,未知分类,289,Unknown classification
677,武泰闸花园小区, Wutai Zha Garden Community,114.298746,30.513296,未知分类,357,Unknown classification
501,中山舰博物馆, Zhongshan Ship Museum,114.13531,30.343754,未知分类,488,Unknown classification
1193,汉口北机动车考场, Hankou North Motor Vehicle Test Center,114.389704,30.747858,未知分类,189,Unknown classification
1272,大渔铁板烧, Dayu Teppanyaki,114.265664,30.596149,未知分类,173,Unknown classification
505,黄陂木兰草原, Huangpi Mulan Grassland,114.457285,30.962755,未知分类,484,Unknown classification
1199,烽火科技, FiberHome Technology,114.430863,30.4993,未知分类,187,Unknown classification
509,江汉北路, Jianghan North Road,114.276563,30.589972,未知分类,481,Unknown classification
514,金鹤园小区, Jinheyuan Community,114.38102,30.611085,未知分类,476,Unknown classification
1202,金韩宫(销品茂店),Kim Han Palace ( Pinmao Store ),114.342727,30.588183,未知分类,187,Unknown classification
588,江夏体育馆, Jiangxia Gymnasium,114.31548,30.351292,未知分类,413,Unknown classification
1260,黄金口工业园, Huangjinkou Industrial Park,114.170983,30.56503,未知分类,174,Unknown classification
1208,阳逻长江大桥, Yangluo Yangtze River Bridge,114.56014,30.634256,未知分类,186,Unknown classification
579,新洲大街, Xinzhou Street,114.803022,30.847051,未知分类,423,Unknown classification
1258,奥特莱斯 罗马春天, Outlets Rome Spring,114.372642,30.387302,未知分类,175,Unknown classification
524,欢乐迪(武胜路店), Happy Di ( Wusheng Road Store ),114.268415,30.568674,未知分类,471,Unknown classification
536,鹿港小镇, Lukang Town,114.272434,30.580491,未知分类,464,Unknown classification
1214,武汉市旅游学校, Wuhan Tourism School,114.243295,30.627821,未知分类,184,Unknown classification
1246,江汉路夜市, Jianghan Road Night Market,114.291331,30.582427,未知分类,177,Unknown classification
571,江汉路, Jianghan Road,114.29457,30.582519,未知分类,430,Unknown classification
548,武汉广电总局(武汉电视台)," Wuhan State Administration of Radio, Film and Television ( Wuhan TV )",114.265709,30.594639,未知分类,450,Unknown classification
564,稻香, Daoxiang,114.341133,30.55655,未知分类,437,Unknown classification
1222,Jamaicablue Cafe, Jamaicablue Cafe,114.33623,30.55926,未知分类,183,Unknown classification
549,华中科技大学管理学院," School of Management, Huazhong University of Science and Technology",114.416129,30.51521,未知分类,450,Unknown classification
551,湖北中医药大学北区宿舍, Hubei University of Traditional Chinese Medicine North District Dormitory,114.271739,30.448627,未知分类,449,Unknown classification
489,盘龙汽车城, Panlong Auto City,114.238403,30.722969,未知分类,501,Unknown classification
1373,武汉纺织大学03栋宿舍, Wuhan Textile University 03 dormitory,114.33978,30.375763,未知分类,156,Unknown classification
1288,三阳路, Sanyang Road,114.307148,30.600949,未知分类,169,Unknown classification
476,万达电影院, Wanda Cinema,114.28915,30.575893,未知分类,524,Unknown classification
676,中国地质大学（武汉）教三楼, China University of Geosciences (Wuhan) Teaching 3rd Floor,114.398241,30.521846,未知分类,358,Unknown classification
357,万达武汉中央文化区, Wanda Wuhan Central Cultural District,114.344689,30.558368,未知分类,688,Unknown classification
371,沌口经济开发区, Zhuankou Economic Development Zone,114.191679,30.459352,未知分类,675,Unknown classification
385,F天下别墅城, F World Villa City,114.25037,30.715398,未知分类,654,Unknown classification
390,江汉经济开发区, Jianghan Economic Development Zone,114.234105,30.622928,未知分类,639,Unknown classification
393,万松园路西园, Wansongyuan Road West Park,114.268057,30.585281,未知分类,634,Unknown classification
1151,梅南山居, Meinan Mountain Residence,114.373538,30.416955,未知分类,198,Unknown classification
654,华中师范大学八号教学楼," No. 8 Teaching Building, Central China Normal University",114.360969,30.519006,未知分类,370,Unknown classification
653,米乐星, Mi Lexing,114.262723,30.578024,未知分类,371,Unknown classification
419,星巴克(菩提金店),Starbucks ( Bodhi Gold Shop ),114.360245,30.574956,未知分类,600,Unknown classification
1159,华中农业大学逸夫楼," Yifu Building, Huazhong Agricultural University",114.357094,30.471682,未知分类,196,Unknown classification
644,东湖落雁景区, East Lake Luoyan Scenic Spot,114.435226,30.55711,未知分类,376,Unknown classification
429,武汉长江大桥引桥汉阳口, Wuhan Yangtze River Bridge Approach Hanyangkou,114.268082,30.552958,未知分类,585,Unknown classification
1331,武汉高铁凯瑞国际酒店, Wuhan High Speed Rail Kairui International Hotel,114.409054,30.431837,未知分类,162,Unknown classification
1328,湖北工业大学文科楼A座,"Humanities Building, Hubei University of Technology A seat",114.309944,30.477861,未知分类,163,Unknown classification
438,武漢大學工學部主教," Bishop of the Faculty of Engineering, Wuhan University",114.362241,30.544411,未知分类,573,Unknown classification
629,东湖春树里, East Lake Chunshuli,114.359975,30.577643,未知分类,385,Unknown classification
624,湖北工业大学艺术设计学院," School of Art and Design, Hubei University of Technology",114.307466,30.481983,未知分类,387,Unknown classification
1318,青石(新式中国菜), bluestone ( New Chinese Cuisine ),114.299376,30.588923,未知分类,165,Unknown classification
622,湖北省委, Hubei Provincial Party Committee,114.343279,30.545638,未知分类,390,Unknown classification
1175,王家湾21世纪购物中心, Wangjiawan twenty one Century Mall,114.210092,30.561078,未知分类,192,Unknown classification
